[{"address1":"5 Clock Tower Place","address2":"Suite 140","city":"Maynard","country_code":"USA","description":"Headquarters","latitude":42.431652,"longitude":-71.455658,"state_code":"MA","zip_code":"01754","location":[-71.455658,42.431652],"Geolocation":[-71.455658,42.431652]},{"address1":"2111 Mission Street","address2":"Suite 302","city":"San Francisco","country_code":"USA","description":"Headquarters","latitude":37.7652755,"longitude":-122.4204782,"state_code":"CA","zip_code":"94110","location":[-122.4204782,37.7652755],"Geolocation":[-122.4204782,37.7652755]},{"address1":"20 Wollaton Street","address2":"","city":"Nottingham","country_code":"GBR","description":"","latitude":52.951997,"longitude":-1.142778,"state_code":null,"zip_code":"NG1 5FW","location":[-1.142778,52.951997],"Geolocation":[-1.142778,52.951997]},{"address1":"381 Flat Hills Rd","address2":"","city":"Amherst","country_code":"USA","description":"World Headquarters","latitude":42.4164071,"longitude":-72.4960864,"state_code":"MA","zip_code":"01002","location":[-72.4960864,42.4164071],"Geolocation":[-72.4960864,42.4164071]},{"address1":"10713 South Jordan Gateway","address2":"Suite 100","city":"South Jordan","country_code":"USA","description":"Headquarters","latitude":40.3310529,"longitude":-111.7276347,"state_code":"UT","zip_code":"84095","location":[-111.7276347,40.3310529],"Geolocation":[-111.7276347,40.3310529]},{"address1":"580 Division Street","address2":"","city":"Campbell","country_code":"USA","description":"World HQ","latitude":37.2628816,"longitude":-121.9602134,"state_code":"CA","zip_code":"95008","location":[-121.9602134,37.2628816],"Geolocation":[-121.9602134,37.2628816]},{"address1":"710 - 2nd Avenue","address2":"Suite 1100","city":"Seattle","country_code":"USA","description":"","latitude":47.603122,"longitude":-122.333253,"state_code":"WA","zip_code":"98104","location":[-122.333253,47.603122],"Geolocation":[-122.333253,47.603122]},{"address1":"270 Lafayette Street","address2":"Suite 505","city":"New York","country_code":"USA","description":"","latitude":40.7237306,"longitude":-73.9964312,"state_code":"NY","zip_code":"10012","location":[-73.9964312,40.7237306],"Geolocation":[-73.9964312,40.7237306]},{"address1":"1840 Embarcadero Road","address2":"","city":"Palo Alto","country_code":"USA","description":"","latitude":37.451958,"longitude":-122.116026,"state_code":"CA","zip_code":"94303","location":[-122.116026,37.451958],"Geolocation":[-122.116026,37.451958]},{"address1":"4888 Pearl East Circle","address2":"Suite 300W","city":"Boulder","country_code":"USA","description":"","latitude":40.031015,"longitude":-105.227764,"state_code":"CO","zip_code":"80301","location":[-105.227764,40.031015],"Geolocation":[-105.227764,40.031015]},{"address1":"4500 Biscayne Blvd","address2":"Suite 306","city":"Miami","country_code":"USA","description":"Miami Office","latitude":25.817674,"longitude":-80.18874,"state_code":"FL","zip_code":"33137","location":[-80.18874,25.817674],"Geolocation":[-80.18874,25.817674]},{"address1":"4500 Biscayne Blvd","address2":"Suite 306","city":"Miami","country_code":"USA","description":"Miami Office","latitude":25.817674,"longitude":-80.18874,"state_code":"FL","zip_code":"33137","location":[-80.18874,25.817674],"Geolocation":[-80.18874,25.817674]},{"address1":"10a Belmont Street,","address2":"","city":"London","country_code":"GBR","description":"","latitude":51.5441671,"longitude":-0.1506897,"state_code":null,"zip_code":"NW1 8HH","location":[-0.1506897,51.5441671],"Geolocation":[-0.1506897,51.5441671]},{"address1":"424 Church Street","address2":"Suite 2000","city":"Nashville","country_code":"USA","description":"Worldwide Headquarters","latitude":-31.91998,"longitude":115.90154,"state_code":"TN","zip_code":"37219","location":[115.90154,-31.91998],"Geolocation":[115.90154,-31.91998]},{"address1":"2501 Michigan Ave","address2":"","city":"Santa Monica","country_code":"USA","description":"Blip Studios","latitude":34.0272246,"longitude":-118.4682333,"state_code":"CA","zip_code":"90404","location":[-118.4682333,34.0272246],"Geolocation":[-118.4682333,34.0272246]},{"address1":"555 West 57th Street, Suite 1326","address2":"","city":"New York","country_code":"USA","description":"HQ","latitude":40.770437,"longitude":-73.990426,"state_code":"NY","zip_code":"10019","location":[-73.990426,40.770437],"Geolocation":[-73.990426,40.770437]},{"address1":"","address2":"","city":"Washington","country_code":"USA","description":"World Headquarters","latitude":34.0324632,"longitude":-118.395863,"state_code":"DC","zip_code":"20007","location":[-118.395863,34.0324632],"Geolocation":[-118.395863,34.0324632]},{"address1":"265 Winter Street","address2":"","city":"Waltham","country_code":"USA","description":"HQ","latitude":42.3988661,"longitude":-71.253781,"state_code":"MA","zip_code":"02451","location":[-71.253781,42.3988661],"Geolocation":[-71.253781,42.3988661]},{"address1":"2nd Floor, Prom\u00e2\u20ac\u2122s, 3H, 7C Main, 3rd Block Koramangala,","address2":"","city":"Bangalore","country_code":"IND","description":"India Office","latitude":12.9346716,"longitude":77.6317612,"state_code":null,"zip_code":"560034","location":[77.6317612,12.9346716],"Geolocation":[77.6317612,12.9346716]},{"address1":"145 Rosemary St.","address2":"Suite D","city":"Needham","country_code":"USA","description":"","latitude":42.296111,"longitude":-71.238524,"state_code":"MA","zip_code":"02494","location":[-71.238524,42.296111],"Geolocation":[-71.238524,42.296111]},{"address1":"1327 Jones Dr. Suite 106","address2":"","city":"Ann Arbor","country_code":"USA","description":"Zattoo USA","latitude":42.292649,"longitude":-83.734673,"state_code":"MI","zip_code":"48105","location":[-83.734673,42.292649],"Geolocation":[-83.734673,42.292649]},{"address1":"275 Wyman Street,","address2":"Suite 130","city":"Waltham","country_code":"USA","description":"HQ","latitude":42.405685,"longitude":-71.255857,"state_code":"MA","zip_code":"02451","location":[-71.255857,42.405685],"Geolocation":[-71.255857,42.405685]},{"address1":"4043 N Ravenswood ave","address2":"suite 106","city":"chicago","country_code":"USA","description":null,"latitude":41.955054,"longitude":-87.673059,"state_code":"IL","zip_code":"60613","location":[-87.673059,41.955054],"Geolocation":[-87.673059,41.955054]},{"address1":"197 1st Avenue, Suite 200","address2":"","city":"Needham","country_code":"USA","description":null,"latitude":42.299905,"longitude":-71.221675,"state_code":"MA","zip_code":"02494","location":[-71.221675,42.299905],"Geolocation":[-71.221675,42.299905]},{"address1":"1370 Willow Road","address2":"2nd Floor","city":"Menlo Park","country_code":"USA","description":"Menlo Park Office","latitude":37.477944,"longitude":-122.151234,"state_code":"CA","zip_code":"94025","location":[-122.151234,37.477944],"Geolocation":[-122.151234,37.477944]},{"address1":"1900 O'Farrell St.","address2":"Suite 320","city":"San Mateo","country_code":"USA","description":null,"latitude":37.548415,"longitude":-122.315636,"state_code":"CA","zip_code":"94403","location":[-122.315636,37.548415],"Geolocation":[-122.315636,37.548415]},{"address1":"469 El Camino Real","address2":"Ste 201","city":"Santa Clara","country_code":"USA","description":"Headquarters","latitude":33.585767,"longitude":-117.731283,"state_code":"CA","zip_code":"95050","location":[-117.731283,33.585767],"Geolocation":[-117.731283,33.585767]},{"address1":"488 Wellington St. W","address2":"Suite 200","city":"Toronto","country_code":"CAN","description":"World Headquarters","latitude":43.64308,"longitude":-79.406775,"state_code":null,"zip_code":"M5V 1E3","location":[-79.406775,43.64308],"Geolocation":[-79.406775,43.64308]},{"address1":"1190 Airport Boulevard","address2":"Napa Valley Gateway Plaza, Suite 200","city":"Napa","country_code":"USA","description":"HQ","latitude":38.223032,"longitude":-122.261642,"state_code":"CA","zip_code":"94558","location":[-122.261642,38.223032],"Geolocation":[-122.261642,38.223032]},{"address1":"","address2":"","city":"Tel Aviv","country_code":"ISR","description":"Israeli Headquarters","latitude":32.0554,"longitude":34.7595,"state_code":null,"zip_code":"","location":[34.7595,32.0554],"Geolocation":[34.7595,32.0554]},{"address1":"122 West 26th Street","address2":"8th Floor","city":"New York","country_code":"USA","description":"US Headquarters","latitude":40.745064,"longitude":-73.992637,"state_code":"NY","zip_code":"10001","location":[-73.992637,40.745064],"Geolocation":[-73.992637,40.745064]},{"address1":"1111 Torrey Pines Road","address2":"","city":"La Jolla","country_code":"USA","description":"EMAS Pro (main office)","latitude":32.842958,"longitude":-117.271461,"state_code":"CA","zip_code":"92037","location":[-117.271461,32.842958],"Geolocation":[-117.271461,32.842958]},{"address1":"312 Walnut Street, Suite 1600","address2":"","city":"Cincinnati","country_code":"USA","description":"EMAS Pro (regional sales)","latitude":39.098927,"longitude":-84.510753,"state_code":"OH","zip_code":"45202","location":[-84.510753,39.098927],"Geolocation":[-84.510753,39.098927]},{"address1":"3J,  3rd Cross, 7th 'C' Main","address2":"3rd Block, Koramangala","city":"Bangalore","country_code":"IND","description":"Corporate Office","latitude":12.937677,"longitude":77.56574,"state_code":null,"zip_code":"560034","location":[77.56574,12.937677],"Geolocation":[77.56574,12.937677]},{"address1":"230 W 41st street","address2":"14th Floor","city":"New York","country_code":"USA","description":"World Headquarters","latitude":40.754211,"longitude":-73.97917,"state_code":"NY","zip_code":"10036","location":[-73.97917,40.754211],"Geolocation":[-73.97917,40.754211]},{"address1":"Box  3404","address2":"","city":"Stockholm","country_code":"SWE","description":"Swedish office","latitude":59.6121259,"longitude":17.8947672,"state_code":null,"zip_code":"103 68","location":[17.8947672,59.6121259],"Geolocation":[17.8947672,59.6121259]},{"address1":"Building 3, Chiswick Park","address2":"566 Chiswick High Road","city":"London","country_code":"GBR","description":"","latitude":51.462904,"longitude":-0.263377,"state_code":null,"zip_code":"W4 5YA","location":[-0.263377,51.462904],"Geolocation":[-0.263377,51.462904]},{"address1":"6580 Via del Oro","address2":"","city":"San Jose","country_code":"USA","description":"Silicon Valley Office","latitude":37.235298,"longitude":-121.782424,"state_code":"CA","zip_code":"95119","location":[-121.782424,37.235298],"Geolocation":[-121.782424,37.235298]},{"address1":"191 airport blvd","address2":"","city":"burlingame","country_code":"USA","description":"Corporate Office","latitude":37.587789,"longitude":-122.334643,"state_code":"CA","zip_code":"94010","location":[-122.334643,37.587789],"Geolocation":[-122.334643,37.587789]},{"address1":"181 N. 11th Street, Suite 307","address2":"","city":"New York City","country_code":"USA","description":"","latitude":40.719436,"longitude":-73.954391,"state_code":"NY","zip_code":"11211","location":[-73.954391,40.719436],"Geolocation":[-73.954391,40.719436]},{"address1":"191 airport blvd","address2":"","city":"burlingame","country_code":"USA","description":"Corporate Office","latitude":37.587789,"longitude":-122.334643,"state_code":"CA","zip_code":"94010","location":[-122.334643,37.587789],"Geolocation":[-122.334643,37.587789]},{"address1":"181 N. 11th Street, Suite 307","address2":"","city":"New York City","country_code":"USA","description":"","latitude":40.719436,"longitude":-73.954391,"state_code":"NY","zip_code":"11211","location":[-73.954391,40.719436],"Geolocation":[-73.954391,40.719436]},{"address1":"Gueterstrasse 99","address2":"","city":"Basel","country_code":"CHE","description":"HQ","latitude":46.465626,"longitude":6.845464,"state_code":null,"zip_code":"4053","location":[6.845464,46.465626],"Geolocation":[6.845464,46.465626]},{"address1":"","address2":"","city":"Trivandrum","country_code":"IND","description":"Software Engineering","latitude":8.503696,"longitude":76.952187,"state_code":null,"zip_code":"","location":[76.952187,8.503696],"Geolocation":[76.952187,8.503696]},{"address1":"800 Washington Avenue North","address2":"Suite #301","city":"Minneapolis","country_code":"USA","description":"Headquarters","latitude":44.989126,"longitude":-93.278663,"state_code":"MN","zip_code":"55401","location":[-93.278663,44.989126],"Geolocation":[-93.278663,44.989126]},{"address1":"30 West Hubbard","address2":"Suite #400","city":"Chicago","country_code":"USA","description":"Chicago Office","latitude":41.890441,"longitude":-87.629377,"state_code":"IL","zip_code":"60601","location":[-87.629377,41.890441],"Geolocation":[-87.629377,41.890441]},{"address1":"6285 East Spring Street","address2":"Suite #277N","city":"Los Angeles","country_code":"USA","description":"Los Angeles Office","latitude":33.810534,"longitude":-118.109206,"state_code":"CA","zip_code":"90808","location":[-118.109206,33.810534],"Geolocation":[-118.109206,33.810534]},{"address1":"13140 Coit Rd, Suite 405","address2":"","city":"Dallas","country_code":"USA","description":"Headquarters","latitude":30.268735,"longitude":-97.745209,"state_code":"TX","zip_code":"75240","location":[-97.745209,30.268735],"Geolocation":[-97.745209,30.268735]},{"address1":"5790 Miramar Road Suite 201","address2":"","city":"San Diego","country_code":"USA","description":"Head Quarters","latitude":32.877483,"longitude":-117.1851,"state_code":"CA","zip_code":"92121","location":[-117.1851,32.877483],"Geolocation":[-117.1851,32.877483]},{"address1":"92 East Main Street","address2":"","city":"Somerville","country_code":"USA","description":"Headquarters","latitude":40.606599,"longitude":-74.693688,"state_code":"NJ","zip_code":"08876","location":[-74.693688,40.606599],"Geolocation":[-74.693688,40.606599]},{"address1":"333 W. San Carlos St.","address2":"Suite 1250","city":"San Jose","country_code":"USA","description":"","latitude":37.3183744,"longitude":-122.0302814,"state_code":"CA","zip_code":"95110","location":[-122.0302814,37.3183744],"Geolocation":[-122.0302814,37.3183744]},{"address1":"6300 Bridge Point Parkway","address2":"Building 1; Suite 350","city":"Austin","country_code":"USA","description":"Austin Office","latitude":30.27995,"longitude":-97.807274,"state_code":"TX","zip_code":"78730","location":[-97.807274,30.27995],"Geolocation":[-97.807274,30.27995]},{"address1":"707 17th St.","address2":"Suite 2100","city":"Denver","country_code":"USA","description":"HQ","latitude":39.7462728,"longitude":-104.9911572,"state_code":"CO","zip_code":"80202","location":[-104.9911572,39.7462728],"Geolocation":[-104.9911572,39.7462728]},{"address1":"4800 Patrick Henry Drive","address2":"","city":"Santa Clara","country_code":"USA","description":"Beganto Incorporation","latitude":37.4004675,"longitude":-121.9851543,"state_code":"CA","zip_code":"95054","location":[-121.9851543,37.4004675],"Geolocation":[-121.9851543,37.4004675]},{"address1":"#21, Off Airport Road","address2":"","city":"Bangalore","country_code":"IND","description":"Bangalore Office","latitude":12.9619084,"longitude":77.6299363,"state_code":null,"zip_code":"560017","location":[77.6299363,12.9619084],"Geolocation":[77.6299363,12.9619084]},{"address1":"323 Silom Road, Silom Fl. 41st","address2":"10500","city":"Bangkok","country_code":"THA","description":"United Center","latitude":13.7255001,"longitude":100.5260729,"state_code":null,"zip_code":"10500","location":[100.5260729,13.7255001],"Geolocation":[100.5260729,13.7255001]},{"address1":"R\u00c3\u00ado Negro 1338","address2":"","city":"Montevideo","country_code":"URY","description":"Montevideo Office","latitude":-34.9060125,"longitude":-56.1932857,"state_code":null,"zip_code":"11100","location":[-56.1932857,-34.9060125],"Geolocation":[-56.1932857,-34.9060125]},{"address1":"3200 Bridge Parkway","address2":"","city":"Redwood City","country_code":"USA","description":"Headquarters","latitude":37.5384185,"longitude":-122.252115,"state_code":"CA","zip_code":"94065","location":[-122.252115,37.5384185],"Geolocation":[-122.252115,37.5384185]},{"address1":"\u00dclikooli 6A","address2":"","city":"Tartu","country_code":"EST","description":"Europe","latitude":58.3754107,"longitude":26.7212208,"state_code":null,"zip_code":"51003","location":[26.7212208,58.3754107],"Geolocation":[26.7212208,58.3754107]},{"address1":"625 2nd Street","address2":"","city":"San Francisco","country_code":"USA","description":"USA","latitude":59.42145,"longitude":24.8021233,"state_code":"CA","zip_code":"94107","location":[24.8021233,59.42145],"Geolocation":[24.8021233,59.42145]},{"address1":"3 Park Avenue","address2":"32nd Floor","city":"New York","country_code":"USA","description":"Corporate Headquarters","latitude":40.752672,"longitude":-73.97593,"state_code":"NY","zip_code":"10016","location":[-73.97593,40.752672],"Geolocation":[-73.97593,40.752672]},{"address1":"710 2nd Avenue","address2":"Suite 840","city":"Seattle","country_code":"USA","description":"Optify HQ","latitude":47.603364,"longitude":-122.333359,"state_code":"WA","zip_code":"98104","location":[-122.333359,47.603364],"Geolocation":[-122.333359,47.603364]},{"address1":"14","address2":"wallers road","city":"chennai","country_code":"IND","description":"India office","latitude":13.0293465,"longitude":80.2122271,"state_code":null,"zip_code":"600002","location":[80.2122271,13.0293465],"Geolocation":[80.2122271,13.0293465]},{"address1":"3 & 6 The Setons","address2":"Tolvaddon Energy Park","city":"Camborne","country_code":"GBR","description":"Guava - Cornwall","latitude":22.351717,"longitude":114.11768,"state_code":null,"zip_code":"TR14 0HX","location":[114.11768,22.351717],"Geolocation":[114.11768,22.351717]},{"address1":"726 Grant Street","address2":"","city":"Troy","country_code":"USA","description":"Headquarters","latitude":40.0336717,"longitude":-84.2100702,"state_code":"OH","zip_code":"45373","location":[-84.2100702,40.0336717],"Geolocation":[-84.2100702,40.0336717]},{"address1":"52 Rausch Street #103","address2":"","city":"San Francisco","country_code":"USA","description":"San Francisco Office","latitude":37.776295,"longitude":-122.409893,"state_code":"CA","zip_code":"94103","location":[-122.409893,37.776295],"Geolocation":[-122.409893,37.776295]},{"address1":"Rua Inacio Pereira da Rocha 421, #5","address2":"Pinheiros","city":"S\u00c3\u00a3o Paulo","country_code":"BRA","description":"S\u00c3\u00a3o Paulo Office","latitude":-23.5612932,"longitude":-46.6918186,"state_code":null,"zip_code":"05432-011","location":[-46.6918186,-23.5612932],"Geolocation":[-46.6918186,-23.5612932]},{"address1":"500 N Capital of Texas Highway","address2":"Bldg 3, 2nd Floor","city":"Austin","country_code":"USA","description":"Corporate HQ","latitude":30.307955,"longitude":-97.828408,"state_code":"TX","zip_code":"78746","location":[-97.828408,30.307955],"Geolocation":[-97.828408,30.307955]},{"address1":"7590 Fay Ave. Suite 506","address2":"","city":"La Jolla","country_code":"USA","description":"Busca Corp. USA","latitude":32.841791,"longitude":-117.274602,"state_code":"CA","zip_code":"92037","location":[-117.274602,32.841791],"Geolocation":[-117.274602,32.841791]},{"address1":"Calle Brasil No. 8471","address2":"Col. Juarez","city":"Tijuana, B.C.","country_code":"MEX","description":"Busca Corp. Tijuana","latitude":32.5217442,"longitude":-117.0274947,"state_code":null,"zip_code":"22040","location":[-117.0274947,32.5217442],"Geolocation":[-117.0274947,32.5217442]},{"address1":"Insurgentes Sur 348 Piso 9","address2":"Col. Roma","city":"Mexico City","country_code":"MEX","description":"Busca Corp. Mexico City","latitude":19.4164309,"longitude":-99.1651395,"state_code":null,"zip_code":"06700","location":[-99.1651395,19.4164309],"Geolocation":[-99.1651395,19.4164309]},{"address1":"340 Brannan St. #302","address2":"","city":"San Francisco","country_code":"USA","description":"","latitude":37.779868,"longitude":-122.392343,"state_code":"CA","zip_code":"94107","location":[-122.392343,37.779868],"Geolocation":[-122.392343,37.779868]},{"address1":"140 Second St","address2":"6th Floor","city":"San Francisco","country_code":"USA","description":"Headquarters","latitude":37.775196,"longitude":-122.419204,"state_code":"CA","zip_code":"94105","location":[-122.419204,37.775196],"Geolocation":[-122.419204,37.775196]},{"address1":"PO Box 221","address2":"","city":"Bedminster","country_code":"USA","description":"Ben Jen Online, LLC","latitude":40.6463644,"longitude":-74.6985891,"state_code":"NJ","zip_code":"07921-0221","location":[-74.6985891,40.6463644],"Geolocation":[-74.6985891,40.6463644]},{"address1":"2155 Analysis Drive","address2":"","city":"Bozeman","country_code":"USA","description":"","latitude":45.6686485,"longitude":-111.0662396,"state_code":"MT","zip_code":"59718","location":[-111.0662396,45.6686485],"Geolocation":[-111.0662396,45.6686485]},{"address1":"460 Totten Pond Road","address2":"","city":"Waltham","country_code":"USA","description":"US Headquarters","latitude":42.39526,"longitude":-71.256368,"state_code":"MA","zip_code":"02451","location":[-71.256368,42.39526],"Geolocation":[-71.256368,42.39526]},{"address1":"46 Ovata Drive","address2":"","city":"Tullamarine","country_code":"AUS","description":"Head Office","latitude":-37.709071,"longitude":144.863665,"state_code":null,"zip_code":"3043","location":[144.863665,-37.709071],"Geolocation":[144.863665,-37.709071]},{"address1":"8 Mohr Street","address2":"","city":"Tullamarine","country_code":"AUS","description":"Administration & Sales","latitude":-37.711099,"longitude":144.86465,"state_code":null,"zip_code":"3043","location":[144.86465,-37.711099],"Geolocation":[144.86465,-37.711099]},{"address1":"P.O. Box 4361","address2":"","city":"Victoria Park","country_code":"AUS","description":"Western Region Office","latitude":-37.034419,"longitude":143.743808,"state_code":null,"zip_code":"6979","location":[143.743808,-37.034419],"Geolocation":[143.743808,-37.034419]},{"address1":"163 Hastings St W","address2":"","city":"Vancouver","country_code":"CAN","description":"","latitude":49.2824551,"longitude":-123.109217,"state_code":null,"zip_code":"BC V6B 1H5","location":[-123.109217,49.2824551],"Geolocation":[-123.109217,49.2824551]},{"address1":"222 Merchandise Mart Plaza","address2":"12th Floor - 1871","city":"Chicago","country_code":"USA","description":"","latitude":37.7867392,"longitude":-122.4013875,"state_code":"IL","zip_code":"60654","location":[-122.4013875,37.7867392],"Geolocation":[-122.4013875,37.7867392]},{"address1":"3962 Borden Street","address2":"102","city":"Victoria","country_code":"CAN","description":"Terapeak HQ","latitude":48.494688,"longitude":-123.407654,"state_code":null,"zip_code":"V8P 3H8","location":[-123.407654,48.494688],"Geolocation":[-123.407654,48.494688]},{"address1":"Mikonkatu 19","address2":"","city":"Helsinki","country_code":"FIN","description":"Apaja HQ","latitude":60.171821,"longitude":24.945167,"state_code":null,"zip_code":"00100","location":[24.945167,60.171821],"Geolocation":[24.945167,60.171821]},{"address1":"100 View Street, Suite 101","address2":"","city":"Mountain View","country_code":"USA","description":"HQ","latitude":37.393536,"longitude":-122.076747,"state_code":"CA","zip_code":"94041","location":[-122.076747,37.393536],"Geolocation":[-122.076747,37.393536]},{"address1":"385 County Line Road West","address2":"Suite 210","city":"Westerville","country_code":"USA","description":"HQ","latitude":40.1368917,"longitude":-82.9431104,"state_code":"OH","zip_code":"43082","location":[-82.9431104,40.1368917],"Geolocation":[-82.9431104,40.1368917]},{"address1":"301 Howard","address2":"3rd Floor","city":"San Francisco","country_code":"USA","description":"","latitude":37.786906,"longitude":-122.397672,"state_code":"CA","zip_code":"94105","location":[-122.397672,37.786906],"Geolocation":[-122.397672,37.786906]},{"address1":"1535 Mission St.","address2":"","city":"San Francisco","country_code":"USA","description":"","latitude":37.771208,"longitude":-122.418129,"state_code":"CA","zip_code":"94103","location":[-122.418129,37.771208],"Geolocation":[-122.418129,37.771208]},{"address1":"4100 E. Third Ave","address2":"Suite 104","city":"Foster City","country_code":"USA","description":"HQ","latitude":37.571318,"longitude":-122.267962,"state_code":"CA","zip_code":"94404","location":[-122.267962,37.571318],"Geolocation":[-122.267962,37.571318]},{"address1":"3675 S. Rainbow Blvd","address2":"Suite 107-361","city":"Las Vegas","country_code":"USA","description":"Corporate Office","latitude":36.1211955,"longitude":-115.2429972,"state_code":"NV","zip_code":"89103","location":[-115.2429972,36.1211955],"Geolocation":[-115.2429972,36.1211955]},{"address1":"5201 Great America Parkway - Suite 320","address2":"","city":"Santa Clara","country_code":"USA","description":"Zeus Technology, Inc","latitude":37.406217,"longitude":-121.976473,"state_code":"CA","zip_code":"CA 95054","location":[-121.976473,37.406217],"Geolocation":[-121.976473,37.406217]},{"address1":"Via Michele Lessona, 38","address2":"","city":"00134 Roma","country_code":"ITA","description":"Zeus Technology","latitude":41.7914948,"longitude":12.5335067,"state_code":null,"zip_code":"","location":[12.5335067,41.7914948],"Geolocation":[12.5335067,41.7914948]},{"address1":"Mehringdamm 33","address2":"","city":"Berlin","country_code":"DEU","description":"German Headquarters","latitude":52.4947266,"longitude":13.398504,"state_code":null,"zip_code":"10961","location":[13.398504,52.4947266],"Geolocation":[13.398504,52.4947266]},{"address1":"","address2":"","city":"Los Angeles","country_code":"USA","description":"US Office","latitude":34.0522342,"longitude":-118.2436849,"state_code":"CA","zip_code":"","location":[-118.2436849,34.0522342],"Geolocation":[-118.2436849,34.0522342]},{"address1":null,"address2":null,"city":"London","country_code":"GBR","description":null,"latitude":51.500152,"longitude":-0.126236,"state_code":null,"zip_code":null,"location":[-0.126236,51.500152],"Geolocation":[-0.126236,51.500152]},{"address1":"11030 CirclePoint Road Suite 350","address2":"","city":"Westminster","country_code":"USA","description":null,"latitude":39.89674,"longitude":-105.07359,"state_code":"CO","zip_code":"80020","location":[-105.07359,39.89674],"Geolocation":[-105.07359,39.89674]},{"address1":"3875 N. 44th St.","address2":"Suite 200","city":"Phoenix","country_code":"USA","description":"Headquarters","latitude":33.492714,"longitude":-111.98694,"state_code":"AZ","zip_code":"85018","location":[-111.98694,33.492714],"Geolocation":[-111.98694,33.492714]},{"address1":"820 16th Street","address2":"Suite 700","city":"Denver","country_code":"USA","description":"Double Encore, Inc","latitude":39.69263,"longitude":-104.955012,"state_code":"CO","zip_code":"80202","location":[-104.955012,39.69263],"Geolocation":[-104.955012,39.69263]},{"address1":"1345 SW 42nd Street","address2":"","city":"Topeka","country_code":"USA","description":"Headquarters","latitude":38.9933157,"longitude":-95.6940151,"state_code":"KS","zip_code":"66609","location":[-95.6940151,38.9933157],"Geolocation":[-95.6940151,38.9933157]},{"address1":"40 Mall Rd.","address2":"","city":"Burlington","country_code":"USA","description":"","latitude":42.487232,"longitude":-71.204372,"state_code":"MA","zip_code":"01803","location":[-71.204372,42.487232],"Geolocation":[-71.204372,42.487232]},{"address1":"22 Cortlandt St Floor 18","address2":"","city":"New York","country_code":"USA","description":"SpaBooker Head Office","latitude":40.738567,"longitude":-73.987199,"state_code":"NY","zip_code":"10007","location":[-73.987199,40.738567],"Geolocation":[-73.987199,40.738567]},{"address1":"","address2":"","city":"Irvine","country_code":"USA","description":"Headquarters","latitude":33.671428,"longitude":-117.791423,"state_code":"CA","zip_code":"","location":[-117.791423,33.671428],"Geolocation":[-117.791423,33.671428]},{"address1":"3525 Eastham Dr.","address2":"","city":"Culver City","country_code":"USA","description":"","latitude":34.017606,"longitude":-118.487267,"state_code":"CA","zip_code":"90232","location":[-118.487267,34.017606],"Geolocation":[-118.487267,34.017606]},{"address1":"442 Post Street","address2":"10th Floor","city":"San Francisco","country_code":"USA","description":null,"latitude":37.788482,"longitude":-122.409173,"state_code":"CA","zip_code":"94102","location":[-122.409173,37.788482],"Geolocation":[-122.409173,37.788482]},{"address1":"450 Sansome Street","address2":"12th Floor","city":"San Francisco","country_code":"USA","description":"GoingOn Networks, Inc.","latitude":37.782263,"longitude":-122.392142,"state_code":"CA","zip_code":"94111","location":[-122.392142,37.782263],"Geolocation":[-122.392142,37.782263]},{"address1":"295 Devonshire Street, 4th floor","address2":"","city":"Boston","country_code":"USA","description":"Headquarters","latitude":42.340889,"longitude":-71.051931,"state_code":"MA","zip_code":"02110","location":[-71.051931,42.340889],"Geolocation":[-71.051931,42.340889]},{"address1":"450 Seventh Ave, Ste 209","address2":"","city":"New York","country_code":"USA","description":"New York Office","latitude":40.739833,"longitude":-73.993158,"state_code":"NY","zip_code":"10011","location":[-73.993158,40.739833],"Geolocation":[-73.993158,40.739833]},{"address1":"11601 Wilshire Blvd","address2":"","city":"Los Angeles","country_code":"USA","description":"Los Angeles Office","latitude":34.050887,"longitude":-118.459995,"state_code":"CA","zip_code":"90025","location":[-118.459995,34.050887],"Geolocation":[-118.459995,34.050887]},{"address1":"644 Menlo Ave.","address2":"Suite 203","city":"Menlo Park","country_code":"USA","description":"","latitude":37.491356,"longitude":-122.228843,"state_code":"CA","zip_code":"94025","location":[-122.228843,37.491356],"Geolocation":[-122.228843,37.491356]},{"address1":"409 S Santa Monica Blvd","address2":"Suite 2A","city":"Santa Monica","country_code":"USA","description":"","latitude":34.018275,"longitude":-118.495025,"state_code":"CA","zip_code":"90401","location":[-118.495025,34.018275],"Geolocation":[-118.495025,34.018275]},{"address1":null,"address2":null,"city":"New York","country_code":"USA","description":null,"latitude":40.757929,"longitude":-73.985506,"state_code":"NY","zip_code":null,"location":[-73.985506,40.757929],"Geolocation":[-73.985506,40.757929]},{"address1":"1510 Fashion Island Blvd, Suite 240","address2":"","city":"San Mateo","country_code":"USA","description":"","latitude":37.5583159,"longitude":-122.2862187,"state_code":"CA","zip_code":"94404","location":[-122.2862187,37.5583159],"Geolocation":[-122.2862187,37.5583159]},{"address1":"16530 Ventura Blvd","address2":"Suite 502","city":"Encino","country_code":"USA","description":"Corporate Office","latitude":34.09846,"longitude":-118.332885,"state_code":"CA","zip_code":"91436","location":[-118.332885,34.09846],"Geolocation":[-118.332885,34.09846]},{"address1":"601, First Floor, 12th Main, HAL 2nd Stage, Indiranagar, Bangalore","address2":"","city":"Bangalore","country_code":"IND","description":null,"latitude":12.933644,"longitude":77.628576,"state_code":null,"zip_code":"560008","location":[77.628576,12.933644],"Geolocation":[77.628576,12.933644]},{"address1":"1054 de Anza Blvd.","address2":"Suite 201","city":"San Jose","country_code":"USA","description":null,"latitude":37.308591,"longitude":-122.031476,"state_code":"CA","zip_code":"95129","location":[-122.031476,37.308591],"Geolocation":[-122.031476,37.308591]},{"address1":"48 Boulevard des Batignolles","address2":"","city":"Paris","country_code":"FRA","description":null,"latitude":48.882647,"longitude":2.322551,"state_code":null,"zip_code":"75017","location":[2.322551,48.882647],"Geolocation":[2.322551,48.882647]},{"address1":"584 Broadway","address2":"Suite 1206","city":"New York","country_code":"USA","description":"NY Office","latitude":40.722655,"longitude":-73.99873,"state_code":"NY","zip_code":"10012","location":[-73.99873,40.722655],"Geolocation":[-73.99873,40.722655]},{"address1":"100 City Road","address2":"Transworld House","city":"London","country_code":"GBR","description":"London","latitude":51.522727,"longitude":-0.084462,"state_code":null,"zip_code":"EC1Y2BP","location":[-0.084462,51.522727],"Geolocation":[-0.084462,51.522727]},{"address1":"450 National Avenue","address2":"","city":"Mountain View","country_code":"USA","description":"","latitude":37.378884,"longitude":-122.010692,"state_code":"CA","zip_code":"94043-2238","location":[-122.010692,37.378884],"Geolocation":[-122.010692,37.378884]},{"address1":"79 rue la Bo\u00e9tie","address2":"","city":"Paris","country_code":"FRA","description":"HQ","latitude":48.856667,"longitude":2.350987,"state_code":null,"zip_code":"75008","location":[2.350987,48.856667],"Geolocation":[2.350987,48.856667]},{"address1":"7247 Lee Highway","address2":"","city":"Falls Church","country_code":"USA","description":null,"latitude":38.878596,"longitude":-77.185057,"state_code":"VA","zip_code":"22042","location":[-77.185057,38.878596],"Geolocation":[-77.185057,38.878596]},{"address1":"55 Broadway","address2":"Floor 25","city":"New York","country_code":"USA","description":"","latitude":40.706728,"longitude":-74.012533,"state_code":"NY","zip_code":"10006","location":[-74.012533,40.706728],"Geolocation":[-74.012533,40.706728]},{"address1":"119 Spadina Ave.","address2":"Suite 502","city":"Toronto","country_code":"CAN","description":"","latitude":43.646873,"longitude":-79.395471,"state_code":null,"zip_code":"","location":[-79.395471,43.646873],"Geolocation":[-79.395471,43.646873]},{"address1":"Level 4 & 5","address2":"97-99 Courtenay Place","city":"Wellington","country_code":"NZL","description":"World Headquarters","latitude":50.3835264,"longitude":-3.6027256,"state_code":null,"zip_code":"6011","location":[-3.6027256,50.3835264],"Geolocation":[-3.6027256,50.3835264]},{"address1":"","address2":"","city":"Berlin","country_code":"DEU","description":null,"latitude":52.52348,"longitude":13.411494,"state_code":null,"zip_code":"","location":[13.411494,52.52348],"Geolocation":[13.411494,52.52348]},{"address1":"Unit A, The Courtyard","address2":"Alban Park, Hatfield Rd","city":"St Albans","country_code":"GBR","description":null,"latitude":51.750141,"longitude":-0.280535,"state_code":null,"zip_code":"AL4 0LA","location":[-0.280535,51.750141],"Geolocation":[-0.280535,51.750141]},{"address1":"207 San Jacinto Blvd","address2":"","city":"Austin","country_code":"USA","description":"","latitude":30.264254,"longitude":-97.74129,"state_code":"TX","zip_code":"78701","location":[-97.74129,30.264254],"Geolocation":[-97.74129,30.264254]},{"address1":"Via San Gaetano, 113","address2":"","city":"Motebelluna","country_code":"ITA","description":"","latitude":45.564237,"longitude":12.428383,"state_code":null,"zip_code":"31044","location":[12.428383,45.564237],"Geolocation":[12.428383,45.564237]},{"address1":"215 First Street","address2":"","city":"Cambridge","country_code":"USA","description":null,"latitude":42.364367,"longitude":-71.078978,"state_code":"MA","zip_code":"02142","location":[-71.078978,42.364367],"Geolocation":[-71.078978,42.364367]},{"address1":"6533 N. Galena Rd.","address2":"","city":"Peoria","country_code":"USA","description":"Firefly Energy, Inc.","latitude":40.76652,"longitude":-89.571813,"state_code":"IL","zip_code":"61614","location":[-89.571813,40.76652],"Geolocation":[-89.571813,40.76652]},{"address1":"275 West Street, Suite 204","address2":"","city":"Annapolis","country_code":"USA","description":"World Headquarters","latitude":38.97639,"longitude":-76.503171,"state_code":"MD","zip_code":"21401","location":[-76.503171,38.97639],"Geolocation":[-76.503171,38.97639]},{"address1":"4807 Spicewood Springs Rd","address2":"Building 4, Suite 201","city":"Austin","country_code":"USA","description":"Development & Marketing","latitude":30.379593,"longitude":-97.765313,"state_code":"TX","zip_code":"78759","location":[-97.765313,30.379593],"Geolocation":[-97.765313,30.379593]},{"address1":"3900 Freedom Circle,","address2":"Suite 201","city":"Santa Clara","country_code":"USA","description":"World Headquarters","latitude":37.383368,"longitude":-121.980186,"state_code":"CA","zip_code":"95054","location":[-121.980186,37.383368],"Geolocation":[-121.980186,37.383368]},{"address1":"1555 Adams","address2":"","city":"Menlo Park","country_code":"USA","description":"HQ and R&D Center","latitude":37.478117,"longitude":-122.14104,"state_code":"CA","zip_code":"94025","location":[-122.14104,37.478117],"Geolocation":[-122.14104,37.478117]},{"address1":"7801 Broadway Ste 205","address2":"","city":"San Antonio","country_code":"USA","description":"San Antonio Office","latitude":29.743772,"longitude":-98.692465,"state_code":"TX","zip_code":"78209","location":[-98.692465,29.743772],"Geolocation":[-98.692465,29.743772]},{"address1":"Ungererstrasse 40","address2":"","city":"Munich","country_code":"DEU","description":"Corporate Headquarters","latitude":48.1654212,"longitude":11.5893956,"state_code":null,"zip_code":"80802","location":[11.5893956,48.1654212],"Geolocation":[11.5893956,48.1654212]},{"address1":"28, Arul Colony, A.S.Rao Nagar,","address2":"ECIL Post, Hyderabad 500062","city":"Hyderabad","country_code":"IND","description":"","latitude":22.5850296,"longitude":88.4001282,"state_code":null,"zip_code":"500062","location":[88.4001282,22.5850296],"Geolocation":[88.4001282,22.5850296]},{"address1":"","address2":"","city":"Dallas","country_code":"USA","description":"","latitude":32.781078,"longitude":-96.797111,"state_code":"TX","zip_code":"","location":[-96.797111,32.781078],"Geolocation":[-96.797111,32.781078]},{"address1":"1250 Connecticut Ave","address2":"Suite 420","city":"Washington","country_code":"USA","description":"HQ","latitude":38.906867,"longitude":-77.042322,"state_code":"DC","zip_code":"20036","location":[-77.042322,38.906867],"Geolocation":[-77.042322,38.906867]},{"address1":"6055 Lehman Drive","address2":"","city":"Colorado Springs","country_code":"USA","description":"US HeadQuarters","latitude":38.919042,"longitude":-104.789289,"state_code":"CO","zip_code":"80918","location":[-104.789289,38.919042],"Geolocation":[-104.789289,38.919042]},{"address1":"17 Holywell Hill","address2":"Suite 42","city":"St. Albans Herts","country_code":"GBR","description":"UK Office","latitude":51.748219,"longitude":-0.341379,"state_code":null,"zip_code":"AL1 1DT","location":[-0.341379,51.748219],"Geolocation":[-0.341379,51.748219]},{"address1":"6, Ravnishta str.","address2":"","city":"Plovdiv","country_code":"BGR","description":"BG Office","latitude":42.133978,"longitude":24.714267,"state_code":null,"zip_code":"4001","location":[24.714267,42.133978],"Geolocation":[24.714267,42.133978]},{"address1":"14 Piedmont Center NE","address2":"Suite 850","city":"Atlanta","country_code":"USA","description":"Corporate Headquarters","latitude":33.852384,"longitude":-84.380568,"state_code":"GA","zip_code":"30305","location":[-84.380568,33.852384],"Geolocation":[-84.380568,33.852384]},{"address1":"304, 5819 2 Street SW","address2":"","city":"Calgary","country_code":"CAN","description":"","latitude":51.001833,"longitude":-114.068589,"state_code":null,"zip_code":"T2H0H3","location":[-114.068589,51.001833],"Geolocation":[-114.068589,51.001833]},{"address1":"144, 2nd Main,","address2":"Kasturinagar","city":"Bangalore","country_code":"IND","description":"AMT Bangalore","latitude":12.968308,"longitude":77.52114,"state_code":null,"zip_code":"560043","location":[77.52114,12.968308],"Geolocation":[77.52114,12.968308]},{"address1":"14 Piedmont Center NE","address2":"Suite 850","city":"Atlanta","country_code":"USA","description":"Corporate Headquarters","latitude":33.852384,"longitude":-84.380568,"state_code":"GA","zip_code":"30305","location":[-84.380568,33.852384],"Geolocation":[-84.380568,33.852384]},{"address1":"304, 5819 2 Street SW","address2":"","city":"Calgary","country_code":"CAN","description":"","latitude":51.001833,"longitude":-114.068589,"state_code":null,"zip_code":"T2H0H3","location":[-114.068589,51.001833],"Geolocation":[-114.068589,51.001833]},{"address1":"144, 2nd Main,","address2":"Kasturinagar","city":"Bangalore","country_code":"IND","description":"AMT Bangalore","latitude":12.968308,"longitude":77.52114,"state_code":null,"zip_code":"560043","location":[77.52114,12.968308],"Geolocation":[77.52114,12.968308]},{"address1":"L13, 2 Elizabeth St","address2":"","city":"Melbourne","country_code":"AUS","description":"Head Office","latitude":-37.812332,"longitude":144.968956,"state_code":null,"zip_code":"VIC 3000","location":[144.968956,-37.812332],"Geolocation":[144.968956,-37.812332]},{"address1":"Antwerpsesteenweg 377","address2":"","city":"GENT","country_code":"BEL","description":"","latitude":51.065887,"longitude":3.753575,"state_code":null,"zip_code":"9040","location":[3.753575,51.065887],"Geolocation":[3.753575,51.065887]},{"address1":"3-248, Plot No 38","address2":"Venkatraonagar, KKP","city":"Hyderabad","country_code":"IND","description":"Core Software","latitude":17.433175,"longitude":78.313807,"state_code":null,"zip_code":"500072","location":[78.313807,17.433175],"Geolocation":[78.313807,17.433175]},{"address1":"429 Fourth Avenue","address2":"Suite 200","city":"Pittsburgh","country_code":"USA","description":"Pittsburgh","latitude":40.438443,"longitude":-79.998427,"state_code":"PA","zip_code":"15219","location":[-79.998427,40.438443],"Geolocation":[-79.998427,40.438443]},{"address1":"600 N. Jackson Street","address2":"Suite 303","city":"Media","country_code":"USA","description":"Philadelphia","latitude":39.924056,"longitude":-75.387947,"state_code":"PA","zip_code":"19603","location":[-75.387947,39.924056],"Geolocation":[-75.387947,39.924056]},{"address1":"Hovedgaden 6, DK-2970","address2":"","city":"Hoersholm","country_code":"DNK","description":"Denamrk Headquarters","latitude":55.878981,"longitude":12.498551,"state_code":null,"zip_code":"","location":[12.498551,55.878981],"Geolocation":[12.498551,55.878981]},{"address1":"2620 Augustine Dr","address2":"Suite 145","city":"Santa Clara","country_code":"USA","description":"HQ","latitude":37.55911,"longitude":-122.303493,"state_code":"CA","zip_code":"95054","location":[-122.303493,37.55911],"Geolocation":[-122.303493,37.55911]},{"address1":"155M New Boston St.","address2":"Suite 130","city":"Woburn","country_code":"USA","description":"North American Sales","latitude":42.508719,"longitude":-71.144313,"state_code":"MA","zip_code":"01801","location":[-71.144313,42.508719],"Geolocation":[-71.144313,42.508719]},{"address1":"15395 SE 30th Pl","address2":"","city":"Bellevue","country_code":"USA","description":"US HQ","latitude":47.582658,"longitude":-122.135282,"state_code":"WA","zip_code":"98007","location":[-122.135282,47.582658],"Geolocation":[-122.135282,47.582658]},{"address1":"","address2":"","city":"Pune","country_code":"IND","description":"India Office","latitude":18.520469,"longitude":73.856621,"state_code":null,"zip_code":"","location":[73.856621,18.520469],"Geolocation":[73.856621,18.520469]},{"address1":"2010 Corporate Ridge, Suite 700","address2":"","city":"McLean","country_code":"USA","description":"HQ","latitude":38.911907,"longitude":-77.215776,"state_code":"VA","zip_code":"22102","location":[-77.215776,38.911907],"Geolocation":[-77.215776,38.911907]},{"address1":"160 East Via Verde Ave.","address2":"","city":"San Dimas","country_code":"USA","description":"Corporate Headquarters","latitude":34.069903,"longitude":-117.848089,"state_code":"CA","zip_code":"91773","location":[-117.848089,34.069903],"Geolocation":[-117.848089,34.069903]},{"address1":"15375 SE 30th Place","address2":"Suite 290","city":"Bellevue","country_code":"USA","description":"Headquarters","latitude":47.5827406,"longitude":-122.1353561,"state_code":"WA","zip_code":"98007","location":[-122.1353561,47.5827406],"Geolocation":[-122.1353561,47.5827406]},{"address1":"Elektroniikkatie 3","address2":"","city":"Oulu","country_code":"FIN","description":"Headquarters","latitude":65.0566012,"longitude":25.4421286,"state_code":null,"zip_code":"FI90570","location":[25.4421286,65.0566012],"Geolocation":[25.4421286,65.0566012]},{"address1":"12 Murphy Dr.","address2":"","city":"Nashua","country_code":"USA","description":"HQ","latitude":42.7370219,"longitude":-71.4872976,"state_code":"NH","zip_code":"03062","location":[-71.4872976,42.7370219],"Geolocation":[-71.4872976,42.7370219]},{"address1":"1971 Landings Dr.","address2":"","city":"Mountain View","country_code":"USA","description":"","latitude":37.4187022,"longitude":-122.0874129,"state_code":"CA","zip_code":"94043","location":[-122.0874129,37.4187022],"Geolocation":[-122.0874129,37.4187022]},{"address1":"9020-I Capital of TX Hwy N","address2":"Suite 270","city":"Austin","country_code":"USA","description":"ReachForce HQ","latitude":30.389042,"longitude":-97.756264,"state_code":"TX","zip_code":"78759","location":[-97.756264,30.389042],"Geolocation":[-97.756264,30.389042]},{"address1":"\u00c5\u00a0vitrigailos g. 11H","address2":"","city":"Vilnius","country_code":"LTU","description":"Headquarters","latitude":54.6756751,"longitude":25.2681237,"state_code":null,"zip_code":"LT-03228","location":[25.2681237,54.6756751],"Geolocation":[25.2681237,54.6756751]},{"address1":"1720 Peachtree Street NW","address2":"Suite 405","city":"Atlanta","country_code":"USA","description":"Hannon Hill Headquarters","latitude":33.84662,"longitude":-84.3565171,"state_code":"GA","zip_code":"30309","location":[-84.3565171,33.84662],"Geolocation":[-84.3565171,33.84662]},{"address1":"6325 Morenci Trail","address2":"","city":"Indianapolis","country_code":"USA","description":"Morenci Office","latitude":39.8705647,"longitude":-86.2374314,"state_code":"IN","zip_code":"46268","location":[-86.2374314,39.8705647],"Geolocation":[-86.2374314,39.8705647]},{"address1":"","address2":"","city":"Northport","country_code":"USA","description":"North Amer. Headquaters","latitude":40.89972,"longitude":-73.351228,"state_code":"NY","zip_code":"11768","location":[-73.351228,40.89972],"Geolocation":[-73.351228,40.89972]},{"address1":"","address2":"","city":"Sao Jose dos Campos","country_code":"BRA","description":"South Amer. Headquarters","latitude":-23.1790801,"longitude":-45.8872476,"state_code":null,"zip_code":"","location":[-45.8872476,-23.1790801],"Geolocation":[-45.8872476,-23.1790801]},{"address1":"8 Prince Georges Park","address2":"Extension Block","city":"Singapore","country_code":"SGP","description":"","latitude":1.290801,"longitude":103.7807403,"state_code":null,"zip_code":"118407","location":[103.7807403,1.290801],"Geolocation":[103.7807403,1.290801]},{"address1":"P.O. Box No:16489","address2":"Mahim","city":"Mumbai","country_code":"IND","description":"Headquarters","latitude":19.017656,"longitude":72.856178,"state_code":null,"zip_code":"400016","location":[72.856178,19.017656],"Geolocation":[72.856178,19.017656]},{"address1":"1080 Belle Avenue","address2":"","city":"Winter Springs","country_code":"USA","description":"Showroom \/ Museum \/ Store","latitude":28.6911811,"longitude":-81.3145175,"state_code":"FL","zip_code":"32708","location":[-81.3145175,28.6911811],"Geolocation":[-81.3145175,28.6911811]},{"address1":"1691 Michigan Ave.","address2":"","city":"Miami Beach","country_code":"USA","description":"Head Office","latitude":25.7917108,"longitude":-80.1388287,"state_code":"FL","zip_code":"33139","location":[-80.1388287,25.7917108],"Geolocation":[-80.1388287,25.7917108]},{"address1":"4 place du Bourg-De-Four","address2":"","city":"Geneva","country_code":"CHE","description":"Geneva Office","latitude":46.1986292,"longitude":6.1382324,"state_code":null,"zip_code":"CH-1204","location":[6.1382324,46.1986292],"Geolocation":[6.1382324,46.1986292]},{"address1":"33\/14 Great Saint Thomas Apostle","address2":"","city":"London","country_code":"GBR","description":"London","latitude":51.5119418,"longitude":-0.0936688,"state_code":null,"zip_code":"EC4V 2BB","location":[-0.0936688,51.5119418],"Geolocation":[-0.0936688,51.5119418]},{"address1":"475 Park Ave S","address2":"","city":"New York","country_code":"USA","description":"New York (HQ)","latitude":40.7454098,"longitude":-73.9822211,"state_code":"NY","zip_code":"10016","location":[-73.9822211,40.7454098],"Geolocation":[-73.9822211,40.7454098]},{"address1":"4 West 4th St","address2":"","city":"Palo Alto","country_code":"USA","description":"Palo Alto","latitude":37.380653,"longitude":-122.1156934,"state_code":"CA","zip_code":"94402","location":[-122.1156934,37.380653],"Geolocation":[-122.1156934,37.380653]},{"address1":"10824 Old Mill Road","address2":"","city":"Omaha","country_code":"USA","description":"Omaha","latitude":41.2601663,"longitude":-96.0791435,"state_code":"NE","zip_code":"68154","location":[-96.0791435,41.2601663],"Geolocation":[-96.0791435,41.2601663]},{"address1":"26-28 rue de Chamb\u00c3\u00a9ry","address2":"","city":"Paris","country_code":"FRA","description":"Main Office","latitude":48.8308091,"longitude":2.3032201,"state_code":null,"zip_code":"75015","location":[2.3032201,48.8308091],"Geolocation":[2.3032201,48.8308091]},{"address1":"Planckstrasse 13","address2":"","city":"Hamburg","country_code":"DEU","description":"Office","latitude":53.5617341,"longitude":9.9255806,"state_code":null,"zip_code":"22765","location":[9.9255806,53.5617341],"Geolocation":[9.9255806,53.5617341]},{"address1":"2505 Da Vinci","address2":"","city":"Irvine","country_code":"USA","description":"","latitude":33.684202,"longitude":-117.841742,"state_code":"CA","zip_code":"92614-5894","location":[-117.841742,33.684202],"Geolocation":[-117.841742,33.684202]},{"address1":"718 SW Adler St.","address2":"Suite 200","city":"Portland","country_code":"USA","description":"Portland Office","latitude":39.915974,"longitude":-105.004417,"state_code":"OR","zip_code":"97205","location":[-105.004417,39.915974],"Geolocation":[-105.004417,39.915974]},{"address1":"104 West 27th Street,","address2":"3rd Floor","city":"New York","country_code":"USA","description":"HQ","latitude":32.0554,"longitude":34.7595,"state_code":"NY","zip_code":"10001","location":[34.7595,32.0554],"Geolocation":[34.7595,32.0554]},{"address1":"8808 S. Kipling Way, #301","address2":"","city":"Littleton","country_code":"USA","description":"Generation Sales Group","latitude":39.5561136,"longitude":-105.1097025,"state_code":"CO","zip_code":"80127","location":[-105.1097025,39.5561136],"Geolocation":[-105.1097025,39.5561136]},{"address1":"6th & 7th Floors","address2":"14 Bonhill Street","city":"London","country_code":"GBR","description":"Headquarters","latitude":34.01873,"longitude":-97.955538,"state_code":null,"zip_code":"EC2A 4BX","location":[-97.955538,34.01873],"Geolocation":[-97.955538,34.01873]},{"address1":"235 East Sixth St.","address2":"Suite 400B","city":"St. Paul","country_code":"USA","description":"Kinetic Data, Inc.","latitude":44.9500232,"longitude":-93.0878626,"state_code":"MN","zip_code":"55101","location":[-93.0878626,44.9500232],"Geolocation":[-93.0878626,44.9500232]},{"address1":"781 Pacific Highway","address2":"Suite 506","city":"Chatswood","country_code":"AUS","description":"Kinetic Data Pty. Ltd.","latitude":-33.798642,"longitude":151.178984,"state_code":null,"zip_code":"NSW 2067","location":[151.178984,-33.798642],"Geolocation":[151.178984,-33.798642]},{"address1":"8400 Normandale Lake Boulevard","address2":"Ninth Floor","city":"Minneapolis","country_code":"USA","description":"North American HQ","latitude":44.8559566,"longitude":-93.3555637,"state_code":"MN","zip_code":"55437","location":[-93.3555637,44.8559566],"Geolocation":[-93.3555637,44.8559566]},{"address1":"1018 8th Avenue","address2":"","city":"San Diego","country_code":"USA","description":"San Diego Office","latitude":32.7160497,"longitude":-117.1574252,"state_code":"CA","zip_code":"92101","location":[-117.1574252,32.7160497],"Geolocation":[-117.1574252,32.7160497]},{"address1":"18851 Bardeen Avenue","address2":"","city":"Irvine","country_code":"USA","description":"Orange County Office","latitude":33.670185,"longitude":-117.856584,"state_code":"CA","zip_code":"92612","location":[-117.856584,33.670185],"Geolocation":[-117.856584,33.670185]},{"address1":"75 Fifth Street","address2":"Suite 440","city":"Atlanta,","country_code":"USA","description":"Corporate Headquarters","latitude":33.7761977,"longitude":-84.385257,"state_code":"GA","zip_code":"30308","location":[-84.385257,33.7761977],"Geolocation":[-84.385257,33.7761977]},{"address1":"233 Broadway","address2":"21st Floor","city":"New York","country_code":"USA","description":"Headquarters","latitude":40.7124151,"longitude":-74.007767,"state_code":"NY","zip_code":"10279","location":[-74.007767,40.7124151],"Geolocation":[-74.007767,40.7124151]},{"address1":"1900 S. Norfolk","address2":"Suite 350","city":"San Mateo","country_code":"USA","description":"World Headquarters","latitude":37.552262,"longitude":-122.292146,"state_code":"CA","zip_code":"94403","location":[-122.292146,37.552262],"Geolocation":[-122.292146,37.552262]},{"address1":"6800 KOLL CENTER PARKWAY","address2":"SUITE 170","city":"Pleasanton","country_code":"USA","description":"PLEASANTON","latitude":37.488336,"longitude":-122.217964,"state_code":"CA","zip_code":"94566","location":[-122.217964,37.488336],"Geolocation":[-122.217964,37.488336]},{"address1":"45 Belden Place, 2nd Floor","address2":"","city":"San Francisco","country_code":"USA","description":"US office","latitude":51.865488,"longitude":-2.235187,"state_code":"CA","zip_code":"94104","location":[-2.235187,51.865488],"Geolocation":[-2.235187,51.865488]},{"address1":"","address2":"","city":"New York","country_code":"USA","description":"Main Office","latitude":40.756054,"longitude":-73.986951,"state_code":"NY","zip_code":"","location":[-73.986951,40.756054],"Geolocation":[-73.986951,40.756054]},{"address1":"","address2":"","city":"Los Angeles","country_code":"USA","description":"","latitude":34.052187,"longitude":-118.243425,"state_code":"CA","zip_code":"","location":[-118.243425,34.052187],"Geolocation":[-118.243425,34.052187]},{"address1":"","address2":"","city":"Pittsburgh","country_code":"USA","description":"","latitude":40.438423,"longitude":-80.001933,"state_code":"PA","zip_code":"","location":[-80.001933,40.438423],"Geolocation":[-80.001933,40.438423]},{"address1":"895 Dove Street","address2":"3rd Floor","city":"Newport Beach","country_code":"USA","description":"Corporate Office","latitude":33.658546,"longitude":-117.86595,"state_code":"CA","zip_code":"92660","location":[-117.86595,33.658546],"Geolocation":[-117.86595,33.658546]},{"address1":"Balanstr. 73","address2":"","city":"Munich","country_code":"DEU","description":"IntraWorlds GmbH","latitude":48.1162965,"longitude":11.6018493,"state_code":null,"zip_code":"81541","location":[11.6018493,48.1162965],"Geolocation":[11.6018493,48.1162965]},{"address1":"35b The Cut","address2":"","city":"London","country_code":"GBR","description":"IntraWorlds Ltd.","latitude":51.5033235,"longitude":-0.1065563,"state_code":null,"zip_code":"SE1 8LF","location":[-0.1065563,51.5033235],"Geolocation":[-0.1065563,51.5033235]},{"address1":"Fuencarral 93, 1d","address2":"","city":"Madrid","country_code":"ESP","description":"IntraWorlds, S.L.","latitude":40.426858,"longitude":-3.7015237,"state_code":null,"zip_code":"28004","location":[-3.7015237,40.426858],"Geolocation":[-3.7015237,40.426858]},{"address1":"Teslova 3","address2":"","city":"Plzen","country_code":"CZE","description":"IntraWorlds sro.","latitude":49.7242571,"longitude":13.3335888,"state_code":null,"zip_code":"30100","location":[13.3335888,49.7242571],"Geolocation":[13.3335888,49.7242571]},{"address1":"1 Yonge Street","address2":"Suite 1801","city":"Toronto","country_code":"CAN","description":"Toronto","latitude":43.6422601,"longitude":-79.3748894,"state_code":null,"zip_code":"M5E 1W7","location":[-79.3748894,43.6422601],"Geolocation":[-79.3748894,43.6422601]},{"address1":"1550 Bryant St.","address2":"Suite 400","city":"San Francisco","country_code":"USA","description":"","latitude":37.767575,"longitude":-122.411157,"state_code":"CA","zip_code":"94103","location":[-122.411157,37.767575],"Geolocation":[-122.411157,37.767575]},{"address1":"Auf der Hude 87","address2":"","city":"L\u00c3\u00bcneburg","country_code":"DEU","description":"L\u00c3\u00bcneburg Office","latitude":53.2615543,"longitude":10.4183586,"state_code":null,"zip_code":"21339","location":[10.4183586,53.2615543],"Geolocation":[10.4183586,53.2615543]},{"address1":"20401 Stevens Creek Blvd.","address2":"","city":"Cupertino","country_code":"USA","description":"HQ","latitude":37.323345,"longitude":-122.029954,"state_code":"CA","zip_code":"95014","location":[-122.029954,37.323345],"Geolocation":[-122.029954,37.323345]},{"address1":"14144 Ventura Blvd.","address2":"Suite 300","city":"Sherman Oaks","country_code":"USA","description":"HQ","latitude":34.15084,"longitude":-118.448703,"state_code":"CA","zip_code":"91423","location":[-118.448703,34.15084],"Geolocation":[-118.448703,34.15084]},{"address1":"10201 Bubb Road","address2":"","city":"Cupertino","country_code":"USA","description":"US Office","latitude":37.3198511,"longitude":-122.0504283,"state_code":"CA","zip_code":"95014","location":[-122.0504283,37.3198511],"Geolocation":[-122.0504283,37.3198511]},{"address1":"","address2":"","city":"Carlsbad","country_code":"USA","description":"OfficeOnTheInternet.com","latitude":33.1412124,"longitude":-117.3205123,"state_code":"CA","zip_code":"92008","location":[-117.3205123,33.1412124],"Geolocation":[-117.3205123,33.1412124]},{"address1":"","address2":"","city":"Los Angeles","country_code":"USA","description":"OfficeOnTheInternet.com","latitude":33.9933257,"longitude":-118.3987842,"state_code":"CA","zip_code":"90230","location":[-118.3987842,33.9933257],"Geolocation":[-118.3987842,33.9933257]},{"address1":"","address2":"","city":"San Diego","country_code":"USA","description":"OfficeOnTheInternet.com","latitude":33.1412124,"longitude":-117.3205123,"state_code":"CA","zip_code":"92008","location":[-117.3205123,33.1412124],"Geolocation":[-117.3205123,33.1412124]},{"address1":"1130 East Arapaho Road","address2":"Suite 435","city":"Richardson","country_code":"USA","description":"","latitude":32.959908,"longitude":-96.70737,"state_code":"TX","zip_code":"75081","location":[-96.70737,32.959908],"Geolocation":[-96.70737,32.959908]},{"address1":"10814 Jollyville Road","address2":"Building IV, Suite 160","city":"Austin","country_code":"USA","description":"","latitude":30.402252,"longitude":-97.748795,"state_code":"TX","zip_code":"78759","location":[-97.748795,30.402252],"Geolocation":[-97.748795,30.402252]},{"address1":"1700 Montgomery St","address2":"","city":"San Francisco","country_code":"USA","description":"Head Office","latitude":37.805289,"longitude":-122.404448,"state_code":"CA","zip_code":"94111","location":[-122.404448,37.805289],"Geolocation":[-122.404448,37.805289]},{"address1":"462 7th Avenue","address2":"21st Floor","city":"New York","country_code":"USA","description":"Headquarters","latitude":40.7429533,"longitude":-73.9844611,"state_code":"NY","zip_code":"10018","location":[-73.9844611,40.7429533],"Geolocation":[-73.9844611,40.7429533]},{"address1":"3030 Warrenville Road","address2":"Suite 340","city":"Lisle","country_code":"USA","description":"Corporate Office","latitude":41.8089007,"longitude":-88.1132884,"state_code":"IL","zip_code":"60532","location":[-88.1132884,41.8089007],"Geolocation":[-88.1132884,41.8089007]},{"address1":"PO Box 46573","address2":"","city":"Eden Prairie","country_code":"USA","description":"YSL Holdings (HQ)","latitude":44.865243,"longitude":-93.4094629,"state_code":"MN","zip_code":"55344","location":[-93.4094629,44.865243],"Geolocation":[-93.4094629,44.865243]},{"address1":"625 East Technology Avenue","address2":"Suite B2300","city":"Orem","country_code":"USA","description":null,"latitude":40.32462,"longitude":-111.679755,"state_code":"UT","zip_code":"84097","location":[-111.679755,40.32462],"Geolocation":[-111.679755,40.32462]},{"address1":"5140 Goldleaf Circle","address2":"3rd Fl","city":"Los Angeles","country_code":"USA","description":"Corporate Headquarters","latitude":33.987978,"longitude":-118.362442,"state_code":"CA","zip_code":"90056","location":[-118.362442,33.987978],"Geolocation":[-118.362442,33.987978]},{"address1":"15303 Dallas Parkway","address2":"Suite 1110","city":"Addison","country_code":"USA","description":"Headquarters","latitude":32.958634,"longitude":-96.823641,"state_code":"TX","zip_code":"75001","location":[-96.823641,32.958634],"Geolocation":[-96.823641,32.958634]},{"address1":"228 Main Street, Suite 4","address2":"","city":"Venice","country_code":"USA","description":"","latitude":34.011335,"longitude":-118.468458,"state_code":"CA","zip_code":"90291","location":[-118.468458,34.011335],"Geolocation":[-118.468458,34.011335]},{"address1":"1020 16th Street NW","address2":"7th Floor","city":"Washington, DC","country_code":"USA","description":"","latitude":38.901279,"longitude":-77.043194,"state_code":"DC","zip_code":"20006","location":[-77.043194,38.901279],"Geolocation":[-77.043194,38.901279]},{"address1":"1611 Simpson Street #3","address2":"","city":"Evanston","country_code":"USA","description":"Headquarters","latitude":42.055849,"longitude":-87.694664,"state_code":"IL","zip_code":"60201","location":[-87.694664,42.055849],"Geolocation":[-87.694664,42.055849]},{"address1":"800 W. St. Clair","address2":"","city":"Cleveland","country_code":"USA","description":"Headquarters","latitude":41.4991436,"longitude":-81.699457,"state_code":"OH","zip_code":"44113","location":[-81.699457,41.4991436],"Geolocation":[-81.699457,41.4991436]},{"address1":"One South Main St.","address2":"","city":"Akron","country_code":"USA","description":"Knight Center","latitude":41.084866,"longitude":-81.516474,"state_code":"OH","zip_code":"44308","location":[-81.516474,41.084866],"Geolocation":[-81.516474,41.084866]},{"address1":"Avenue Louise","address2":"149b28","city":"","country_code":"BEL","description":"Kiala","latitude":50.8256038,"longitude":4.3652584,"state_code":null,"zip_code":"1050","location":[4.3652584,50.8256038],"Geolocation":[4.3652584,50.8256038]},{"address1":"10051 5th Street N","address2":"Ste. 101","city":"St. Petersburg","country_code":"USA","description":"US Office","latitude":27.863376,"longitude":-82.63997,"state_code":"FL","zip_code":"33702","location":[-82.63997,27.863376],"Geolocation":[-82.63997,27.863376]},{"address1":"701 1st ave.","address2":"","city":"Sunnyvale","country_code":"USA","description":"HQ","latitude":37.418531,"longitude":-122.025485,"state_code":"CA","zip_code":"94089","location":[-122.025485,37.418531],"Geolocation":[-122.025485,37.418531]},{"address1":"455 West Maude Ave","address2":"Suite 220","city":"Sunnyvale","country_code":"USA","description":"","latitude":37.385225,"longitude":-121.991912,"state_code":"CA","zip_code":"94085","location":[-121.991912,37.385225],"Geolocation":[-121.991912,37.385225]},{"address1":"5430 Wade Park Blvd","address2":"Suite 310","city":"Raleigh","country_code":"USA","description":"HQ","latitude":35.79181,"longitude":-78.74123,"state_code":"NC","zip_code":"27607","location":[-78.74123,35.79181],"Geolocation":[-78.74123,35.79181]},{"address1":"170 Piccadilly","address2":"","city":"London","country_code":"GBR","description":"Headquarters","latitude":51.5051974,"longitude":-0.1457395,"state_code":null,"zip_code":"W1J 9EJ","location":[-0.1457395,51.5051974],"Geolocation":[-0.1457395,51.5051974]},{"address1":"3 rue Saint-Philippe du Roule","address2":"","city":"75008 Paris","country_code":"FRA","description":"Paris Office","latitude":48.8732155,"longitude":2.3088701,"state_code":null,"zip_code":"","location":[2.3088701,48.8732155],"Geolocation":[2.3088701,48.8732155]},{"address1":"360 Post St. Ste. 1100","address2":"","city":"San Francisco","country_code":"USA","description":"","latitude":37.779558,"longitude":-122.393041,"state_code":"CA","zip_code":"94108","location":[-122.393041,37.779558],"Geolocation":[-122.393041,37.779558]},{"address1":"475 Park Ave South","address2":"10th Floor","city":"New York","country_code":"USA","description":"","latitude":37.480999,"longitude":-122.173887,"state_code":"NY","zip_code":"10016","location":[-122.173887,37.480999],"Geolocation":[-122.173887,37.480999]},{"address1":"1975 pads rd","address2":"Suite 3000","city":"Los Angeles","country_code":"USA","description":"","latitude":34.051409,"longitude":-118.254558,"state_code":"CA","zip_code":"90071","location":[-118.254558,34.051409],"Geolocation":[-118.254558,34.051409]},{"address1":"114, rue Cardinet","address2":"","city":"Paris","country_code":"FRA","description":"Paris","latitude":48.870806,"longitude":2.34668,"state_code":null,"zip_code":"75017","location":[2.34668,48.870806],"Geolocation":[2.34668,48.870806]},{"address1":"3003 Bunker Hill Lane","address2":"Suite 101","city":"Santa Clara","country_code":"USA","description":"Headquarters","latitude":37.387114,"longitude":-121.973228,"state_code":"CA","zip_code":"95054","location":[-121.973228,37.387114],"Geolocation":[-121.973228,37.387114]},{"address1":"801 Cassatt Road","address2":"Suite 120","city":"Berwyn","country_code":"USA","description":"Headquarters","latitude":40.063476,"longitude":-75.457492,"state_code":"PA","zip_code":"19312","location":[-75.457492,40.063476],"Geolocation":[-75.457492,40.063476]},{"address1":"36 West 20th st","address2":"","city":"New York","country_code":"USA","description":null,"latitude":40.740337,"longitude":-73.993127,"state_code":"NY","zip_code":"10011","location":[-73.993127,40.740337],"Geolocation":[-73.993127,40.740337]},{"address1":"1011 Western Ave","address2":"Ste 1000","city":"Seattle","country_code":"USA","description":"","latitude":47.6399006,"longitude":-122.1914274,"state_code":"WA","zip_code":"98104","location":[-122.1914274,47.6399006],"Geolocation":[-122.1914274,47.6399006]},{"address1":"71 Columbia","address2":"Suite 300","city":"Seattle","country_code":"USA","description":"Evri Seattle","latitude":47.620716,"longitude":-122.347533,"state_code":"WA","zip_code":"","location":[-122.347533,47.620716],"Geolocation":[-122.347533,47.620716]},{"address1":"77 Bloor Street West Unit 1107","address2":"","city":"Toronto","country_code":"CAN","description":"","latitude":43.666953,"longitude":-79.388279,"state_code":null,"zip_code":"M5S 1M2","location":[-79.388279,43.666953],"Geolocation":[-79.388279,43.666953]},{"address1":"731 Market Street","address2":"2nd Floor","city":"San Francisco","country_code":"USA","description":"","latitude":37.796164,"longitude":-122.420903,"state_code":"CA","zip_code":"94108","location":[-122.420903,37.796164],"Geolocation":[-122.420903,37.796164]},{"address1":"172 Fifth Avenue","address2":"Suite 131","city":"Brooklyn","country_code":"USA","description":"","latitude":40.66509,"longitude":-73.980306,"state_code":"NY","zip_code":"11215","location":[-73.980306,40.66509],"Geolocation":[-73.980306,40.66509]},{"address1":"762 9th Street","address2":"#655","city":"Durham","country_code":"USA","description":null,"latitude":36.009825,"longitude":-78.922055,"state_code":"NC","zip_code":"27705","location":[-78.922055,36.009825],"Geolocation":[-78.922055,36.009825]},{"address1":"15400 SE 30th Pl","address2":"Suite #105","city":"Bellevue","country_code":"USA","description":"Corporate Headquarters","latitude":47.584224,"longitude":-122.19292,"state_code":"WA","zip_code":"98004","location":[-122.19292,47.584224],"Geolocation":[-122.19292,47.584224]},{"address1":"","address2":"","city":"Tel Aviv","country_code":"ISR","description":"","latitude":32.0554,"longitude":34.7595,"state_code":null,"zip_code":"","location":[34.7595,32.0554],"Geolocation":[34.7595,32.0554]},{"address1":"Passeig de Gracia 49","address2":"","city":"Barcelona","country_code":"ESP","description":"","latitude":41.396553,"longitude":2.189241,"state_code":null,"zip_code":"08018","location":[2.189241,41.396553],"Geolocation":[2.189241,41.396553]},{"address1":"","address2":"","city":"El Segundo","country_code":"USA","description":"","latitude":34.048857,"longitude":-118.251343,"state_code":"CA","zip_code":"90245","location":[-118.251343,34.048857],"Geolocation":[-118.251343,34.048857]},{"address1":"100 Borough High Street","address2":"","city":"London","country_code":"GBR","description":null,"latitude":51.503188,"longitude":-0.091784,"state_code":null,"zip_code":"SE1 1YB","location":[-0.091784,51.503188],"Geolocation":[-0.091784,51.503188]},{"address1":"11 Broadway","address2":"16th Floor","city":"New York","country_code":"USA","description":"HQ","latitude":40.740162,"longitude":-73.993367,"state_code":"NY","zip_code":"10004","location":[-73.993367,40.740162],"Geolocation":[-73.993367,40.740162]},{"address1":"2810 Meridian Pkwy","address2":"Suite 130","city":"Durham","country_code":"USA","description":"","latitude":36.0966,"longitude":-79.266246,"state_code":"NC","zip_code":"27713","location":[-79.266246,36.0966],"Geolocation":[-79.266246,36.0966]},{"address1":"640 2nd St.","address2":"3rd Floor","city":"San Francisco","country_code":"USA","description":"San Francisco Office","latitude":37.781264,"longitude":-122.391515,"state_code":"CA","zip_code":"94107","location":[-122.391515,37.781264],"Geolocation":[-122.391515,37.781264]},{"address1":"333 Hudson St.","address2":"6th Floor","city":"New York","country_code":"USA","description":"New York Office","latitude":40.727107,"longitude":-74.007655,"state_code":"NY","zip_code":"10013","location":[-74.007655,40.727107],"Geolocation":[-74.007655,40.727107]},{"address1":"1450 S Miami Ave","address2":"","city":"Miami","country_code":"USA","description":"Headquarters","latitude":25.887462,"longitude":-80.166155,"state_code":"FL","zip_code":"33130","location":[-80.166155,25.887462],"Geolocation":[-80.166155,25.887462]},{"address1":"16 Douglas Court","address2":"","city":"Dover","country_code":"USA","description":"Delaware HQ","latitude":39.096465,"longitude":-75.533034,"state_code":"DE","zip_code":"19901","location":[-75.533034,39.096465],"Geolocation":[-75.533034,39.096465]},{"address1":"5933 W. Century Blvd","address2":"Suite 105","city":"Los Angeles","country_code":"USA","description":"Corporate Headquarters","latitude":33.946285,"longitude":-118.38823,"state_code":"CA","zip_code":"90045","location":[-118.38823,33.946285],"Geolocation":[-118.38823,33.946285]},{"address1":"128 Warren Street","address2":"","city":"Lowell","country_code":"USA","description":"","latitude":42.64245,"longitude":-71.305778,"state_code":"MA","zip_code":"01852","location":[-71.305778,42.64245],"Geolocation":[-71.305778,42.64245]},{"address1":"474 Bryant Street","address2":"","city":"San Francisco","country_code":"USA","description":"SF HQ","latitude":37.459112,"longitude":-122.142326,"state_code":"CA","zip_code":"94107","location":[-122.142326,37.459112],"Geolocation":[-122.142326,37.459112]},{"address1":"400 S. El Camino Real","address2":"Suite 500","city":"San Mateo","country_code":"USA","description":"VideoSurf, Inc.","latitude":37.561877,"longitude":-122.325248,"state_code":"CA","zip_code":"94402","location":[-122.325248,37.561877],"Geolocation":[-122.325248,37.561877]},{"address1":"5933 W. Century Blvd","address2":"Suite 105","city":"Los Angeles","country_code":"USA","description":"Corporate Headquarters","latitude":33.946285,"longitude":-118.38823,"state_code":"CA","zip_code":"90045","location":[-118.38823,33.946285],"Geolocation":[-118.38823,33.946285]},{"address1":"128 Warren Street","address2":"","city":"Lowell","country_code":"USA","description":"","latitude":42.64245,"longitude":-71.305778,"state_code":"MA","zip_code":"01852","location":[-71.305778,42.64245],"Geolocation":[-71.305778,42.64245]},{"address1":"474 Bryant Street","address2":"","city":"San Francisco","country_code":"USA","description":"SF HQ","latitude":37.459112,"longitude":-122.142326,"state_code":"CA","zip_code":"94107","location":[-122.142326,37.459112],"Geolocation":[-122.142326,37.459112]},{"address1":"400 S. El Camino Real","address2":"Suite 500","city":"San Mateo","country_code":"USA","description":"VideoSurf, Inc.","latitude":37.561877,"longitude":-122.325248,"state_code":"CA","zip_code":"94402","location":[-122.325248,37.561877],"Geolocation":[-122.325248,37.561877]},{"address1":"Kengal Hanumanthaiah Road","address2":"Karnataka","city":"Bangalore","country_code":"IND","description":"Srinagar","latitude":12.956128,"longitude":77.592264,"state_code":null,"zip_code":"560086","location":[77.592264,12.956128],"Geolocation":[77.592264,12.956128]},{"address1":"Level 2, 47 Murray St","address2":"","city":"Pyrmont","country_code":"AUS","description":"Sydney Office","latitude":-33.876239,"longitude":151.215201,"state_code":null,"zip_code":"2009","location":[151.215201,-33.876239],"Geolocation":[151.215201,-33.876239]},{"address1":"58, rue du Faubourg Poissonni\u00c3\u00a8re","address2":"","city":"Paris","country_code":"FRA","description":"Offices","latitude":48.8691369,"longitude":2.3602202,"state_code":null,"zip_code":"75010","location":[2.3602202,48.8691369],"Geolocation":[2.3602202,48.8691369]},{"address1":"666 Natoma Street","address2":"","city":"San Francisco","country_code":"USA","description":"San Francisco Office","latitude":37.7875973,"longitude":-122.4035368,"state_code":"CA","zip_code":"94103","location":[-122.4035368,37.7875973],"Geolocation":[-122.4035368,37.7875973]},{"address1":"2201 Broadway","address2":"Suite 100","city":"Oakland","country_code":"USA","description":"","latitude":37.8317,"longitude":-122.2845,"state_code":"CA","zip_code":"94612","location":[-122.2845,37.8317],"Geolocation":[-122.2845,37.8317]},{"address1":"91 HaHashmonaim","address2":"First Floor","city":"Tel Aviv","country_code":"ISR","description":"Headquarters","latitude":32.0695889,"longitude":34.7836788,"state_code":null,"zip_code":"","location":[34.7836788,32.0695889],"Geolocation":[34.7836788,32.0695889]},{"address1":"345 7th Ave","address2":"Suite 503","city":"New York","country_code":"USA","description":"RankAbove USA","latitude":40.748047,"longitude":-73.992402,"state_code":"NY","zip_code":"10001","location":[-73.992402,40.748047],"Geolocation":[-73.992402,40.748047]},{"address1":"640 Freedom Business Center","address2":"Suite 305","city":"King Of Prussia","country_code":"USA","description":"US Headquarters","latitude":40.093245,"longitude":-75.411743,"state_code":"PA","zip_code":"19406","location":[-75.411743,40.093245],"Geolocation":[-75.411743,40.093245]},{"address1":"10 Bell Drive","address2":"","city":"Grave yard","country_code":"IND","description":"Headquarters","latitude":38.943854,"longitude":-77.322949,"state_code":"WI","zip_code":"07423","location":[-77.322949,38.943854],"Geolocation":[-77.322949,38.943854]},{"address1":"75 Sylvan St","address2":"","city":"Danvers","country_code":"USA","description":"Headquarters","latitude":42.556598,"longitude":-70.944951,"state_code":"MA","zip_code":"01923","location":[-70.944951,42.556598],"Geolocation":[-70.944951,42.556598]},{"address1":"1059 Opal Way, Gardena,","address2":"","city":"Gardena","country_code":"USA","description":"mobile-worx","latitude":13.0712588,"longitude":80.2417642,"state_code":"CA","zip_code":"90247","location":[80.2417642,13.0712588],"Geolocation":[80.2417642,13.0712588]},{"address1":"222 Delaware Ave","address2":"","city":"Wilmington","country_code":"USA","description":"Primary Address","latitude":39.746055,"longitude":-75.549983,"state_code":"DE","zip_code":"19801","location":[-75.549983,39.746055],"Geolocation":[-75.549983,39.746055]},{"address1":"Federico Lacroze 2252 1A","address2":"","city":"Buenos Aires","country_code":"ARG","description":"HQ","latitude":-34.5683803,"longitude":-58.4433589,"state_code":null,"zip_code":"1426","location":[-58.4433589,-34.5683803],"Geolocation":[-58.4433589,-34.5683803]},{"address1":"1 New England Executive Park","address2":"","city":"Burlington","country_code":"USA","description":"Headquarters","latitude":42.485102,"longitude":-71.211568,"state_code":"MA","zip_code":"01803","location":[-71.211568,42.485102],"Geolocation":[-71.211568,42.485102]},{"address1":"Agtel","address2":"22 Upper Fitzwilliam Street","city":"Dublin","country_code":"IRL","description":"Dublin Office","latitude":53.3632377,"longitude":-6.3122021,"state_code":null,"zip_code":"Dublin 2","location":[-6.3122021,53.3632377],"Geolocation":[-6.3122021,53.3632377]},{"address1":"Newcombe House","address2":"45 Notting Hill Gate","city":"London","country_code":"GBR","description":"","latitude":51.518101,"longitude":-0.468617,"state_code":null,"zip_code":"W11 3LQ","location":[-0.468617,51.518101],"Geolocation":[-0.468617,51.518101]},{"address1":"2620 Augustine Dr #230","address2":"","city":"Santa Clara","country_code":"USA","description":"","latitude":37.3694441,"longitude":-121.9662996,"state_code":"CA","zip_code":"95054","location":[-121.9662996,37.3694441],"Geolocation":[-121.9662996,37.3694441]},{"address1":"730 Fifth Ave.","address2":"The Crown Building, Suite 916","city":"New York","country_code":"USA","description":"Rhxo Headquarter","latitude":40.762897,"longitude":-73.974714,"state_code":"NY","zip_code":"10019","location":[-73.974714,40.762897],"Geolocation":[-73.974714,40.762897]},{"address1":"","address2":"","city":"San Francisco","country_code":"USA","description":"ClerkDogs","latitude":37.7581148,"longitude":-122.4184108,"state_code":"CA","zip_code":"94110","location":[-122.4184108,37.7581148],"Geolocation":[-122.4184108,37.7581148]},{"address1":"7031 Koll Center Parkway","address2":"Suite 260","city":"Pleasanton","country_code":"USA","description":"","latitude":37.6621228,"longitude":-121.9009329,"state_code":"CA","zip_code":"94566","location":[-121.9009329,37.6621228],"Geolocation":[-121.9009329,37.6621228]},{"address1":"670 Broadway","address2":"Second Floor","city":"New York","country_code":"USA","description":"","latitude":40.727216,"longitude":-73.994797,"state_code":"NY","zip_code":"10012","location":[-73.994797,40.727216],"Geolocation":[-73.994797,40.727216]},{"address1":"1025 Connecticut Ave. NW","address2":"Suite 1103","city":"Washington","country_code":"USA","description":"World Headquarters","latitude":38.903324,"longitude":-77.039348,"state_code":"DC","zip_code":"20036","location":[-77.039348,38.903324],"Geolocation":[-77.039348,38.903324]},{"address1":"Bliesstra\u00c3\u0178e 5","address2":"","city":"Ludwigshafen","country_code":"DEU","description":"","latitude":49.4782559,"longitude":8.4206085,"state_code":null,"zip_code":"67071","location":[8.4206085,49.4782559],"Geolocation":[8.4206085,49.4782559]},{"address1":"2121 5th Avenue","address2":"","city":"Seattle","country_code":"USA","description":"","latitude":47.6146338,"longitude":-122.3408187,"state_code":"WA","zip_code":"98121","location":[-122.3408187,47.6146338],"Geolocation":[-122.3408187,47.6146338]},{"address1":"18300 West Highway 72","address2":"","city":"Arvada","country_code":"USA","description":"SkyFuel Headquarters","latitude":39.862942,"longitude":-105.206509,"state_code":"CO","zip_code":"80007","location":[-105.206509,39.862942],"Geolocation":[-105.206509,39.862942]},{"address1":"47-47 36th Street","address2":"Suite # 20442","city":"Long Island City","country_code":"USA","description":"US Crossponding Address","latitude":40.7488761,"longitude":-73.9815793,"state_code":"NY","zip_code":"11101","location":[-73.9815793,40.7488761],"Geolocation":[-73.9815793,40.7488761]},{"address1":"Bath Road","address2":"Avonbridge House","city":"Chippenham","country_code":"GBR","description":"Corporate Headquarters","latitude":51.4515283,"longitude":-2.1334555,"state_code":null,"zip_code":"SN15 2BB","location":[-2.1334555,51.4515283],"Geolocation":[-2.1334555,51.4515283]},{"address1":"425 Broadway","address2":"2nd Floor","city":"New York","country_code":"USA","description":"Mint Digital New York","latitude":40.7188875,"longitude":-74.0011694,"state_code":"NY","zip_code":"10013","location":[-74.0011694,40.7188875],"Geolocation":[-74.0011694,40.7188875]},{"address1":"16 rue de Hanovre","address2":"","city":"Paris","country_code":"FRA","description":"Paris Headquarter","latitude":48.8701574,"longitude":2.334781,"state_code":null,"zip_code":"75002","location":[2.334781,48.8701574],"Geolocation":[2.334781,48.8701574]},{"address1":"2415 Third Street, suite 231","address2":"","city":"San Francisco","country_code":"USA","description":"US Office","latitude":37.7577648,"longitude":-122.3882112,"state_code":"CA","zip_code":"94107","location":[-122.3882112,37.7577648],"Geolocation":[-122.3882112,37.7577648]},{"address1":"800 Boylston St.","address2":"","city":"Boston","country_code":"USA","description":"GLOGSTER EC, INC. (Sales)","latitude":42.35892,"longitude":-71.05781,"state_code":"MA","zip_code":"02119","location":[-71.05781,42.35892],"Geolocation":[-71.05781,42.35892]},{"address1":"Vodickova 36","address2":"","city":"Prague","country_code":"CZE","description":"GLOGSTER a.s. (HQ)","latitude":50.0878114,"longitude":14.4204598,"state_code":null,"zip_code":"11602","location":[14.4204598,50.0878114],"Geolocation":[14.4204598,50.0878114]},{"address1":"6011 W. Courtyard Drive, Suite 300","address2":"","city":"Austin","country_code":"USA","description":"HQ","latitude":30.354768,"longitude":-97.798152,"state_code":"TX","zip_code":"78730","location":[-97.798152,30.354768],"Geolocation":[-97.798152,30.354768]},{"address1":"Ronda Universitat 31","address2":"5o 4a","city":"Barcelona","country_code":"ESP","description":"Barcelona Office","latitude":41.4063346,"longitude":2.1920231,"state_code":"CA","zip_code":"08007","location":[2.1920231,41.4063346],"Geolocation":[2.1920231,41.4063346]},{"address1":"Mathildenstr. 18","address2":"","city":"Kiel","country_code":"DEU","description":"World Headquarter","latitude":54.323738,"longitude":10.1665152,"state_code":null,"zip_code":"24148","location":[10.1665152,54.323738],"Geolocation":[10.1665152,54.323738]},{"address1":"1050 Walnut","address2":"Suite 115","city":"Boulder","country_code":"USA","description":"","latitude":40.019299,"longitude":-105.274628,"state_code":"CO","zip_code":"80302","location":[-105.274628,40.019299],"Geolocation":[-105.274628,40.019299]},{"address1":"3132 Tiger Run","address2":"","city":"Carlsbad","country_code":"USA","description":"Headquarters","latitude":33.1032516,"longitude":-117.2667494,"state_code":"CA","zip_code":"92009","location":[-117.2667494,33.1032516],"Geolocation":[-117.2667494,33.1032516]},{"address1":"3196 Willow Creek Road","address2":"A103 # 230","city":"Prescott","country_code":"USA","description":"Regional Office","latitude":34.600895,"longitude":-112.458454,"state_code":"AZ","zip_code":"86301","location":[-112.458454,34.600895],"Geolocation":[-112.458454,34.600895]},{"address1":"200 Motor Parkway","address2":"","city":"Hauppauge","country_code":"USA","description":"Headquarters","latitude":40.808322,"longitude":-73.254767,"state_code":"NY","zip_code":"11788","location":[-73.254767,40.808322],"Geolocation":[-73.254767,40.808322]},{"address1":"6190 Corte Del Cedro","address2":"","city":"Carlsbad","country_code":"USA","description":"PhotoThera","latitude":33.13324,"longitude":-117.275027,"state_code":"CA","zip_code":"92011","location":[-117.275027,33.13324],"Geolocation":[-117.275027,33.13324]},{"address1":"2601 Elliott Avenue","address2":"Suite 400A","city":"Seattle","country_code":"USA","description":"","latitude":47.649027,"longitude":-122.346299,"state_code":"WA","zip_code":"98121","location":[-122.346299,47.649027],"Geolocation":[-122.346299,47.649027]},{"address1":"510 Glenwood Avenue","address2":"Suite 221","city":"Raleigh","country_code":"USA","description":"US Headquarters","latitude":35.786975,"longitude":-78.647003,"state_code":"NC","zip_code":"27603","location":[-78.647003,35.786975],"Geolocation":[-78.647003,35.786975]},{"address1":"","address2":"","city":"Toronto","country_code":"CAN","description":"Main Office","latitude":43.670233,"longitude":-79.386755,"state_code":null,"zip_code":"","location":[-79.386755,43.670233],"Geolocation":[-79.386755,43.670233]},{"address1":"9111 Jollyville Road, Suite 100","address2":"","city":"Austin","country_code":"USA","description":"Headquarters","latitude":37.235298,"longitude":-121.782424,"state_code":"TX","zip_code":"78759","location":[-121.782424,37.235298],"Geolocation":[-121.782424,37.235298]},{"address1":"Level 4, 2-12 Foveaux St","address2":"","city":"Surry Hills","country_code":"AUS","description":"Head Office","latitude":-33.8835577,"longitude":151.2085974,"state_code":null,"zip_code":"2010","location":[151.2085974,-33.8835577],"Geolocation":[151.2085974,-33.8835577]},{"address1":"151 Frobisher Dr.","address2":"Suite 107, Building B","city":"Waterloo","country_code":"CAN","description":"TutorJam Canada","latitude":43.5058646,"longitude":-80.5284226,"state_code":null,"zip_code":"N2V 2C9","location":[-80.5284226,43.5058646],"Geolocation":[-80.5284226,43.5058646]},{"address1":"1829 E. Franklin Street","address2":"Suite 600","city":"Chapel Hill","country_code":"USA","description":"TutorJam USA","latitude":35.9375612,"longitude":-79.0251668,"state_code":"NC","zip_code":"27514","location":[-79.0251668,35.9375612],"Geolocation":[-79.0251668,35.9375612]},{"address1":"via Carpi, 38","address2":"","city":"Correggio (Reggio Emilia)","country_code":"ITA","description":"Headquarters","latitude":44.7717467,"longitude":10.7771665,"state_code":null,"zip_code":"42015","location":[10.7771665,44.7717467],"Geolocation":[10.7771665,44.7717467]},{"address1":"1050 Walnut Street","address2":"Suite 202","city":"Boulder","country_code":"USA","description":"Headquarters","latitude":40.01621,"longitude":-105.28131,"state_code":"CO","zip_code":"80302","location":[-105.28131,40.01621],"Geolocation":[-105.28131,40.01621]},{"address1":"130 W. Union","address2":"","city":"Pasadena","country_code":"USA","description":null,"latitude":34.146436,"longitude":-118.153136,"state_code":"CA","zip_code":"91103","location":[-118.153136,34.146436],"Geolocation":[-118.153136,34.146436]},{"address1":"111 Sutter Street","address2":"Suite 550","city":"San Francisco","country_code":"USA","description":"San Francisco","latitude":37.78976,"longitude":-122.402524,"state_code":"CA","zip_code":"94104","location":[-122.402524,37.78976],"Geolocation":[-122.402524,37.78976]},{"address1":"1064 Greenwood Boulvard","address2":"","city":"Lake Mary","country_code":"USA","description":"Headquarters","latitude":28.757202,"longitude":-81.334464,"state_code":"FL","zip_code":"32736","location":[-81.334464,28.757202],"Geolocation":[-81.334464,28.757202]},{"address1":"1064 Greenwood Boulvard","address2":"","city":"Lake Mary","country_code":"USA","description":"Headquarters","latitude":28.757202,"longitude":-81.334464,"state_code":"FL","zip_code":"32736","location":[-81.334464,28.757202],"Geolocation":[-81.334464,28.757202]},{"address1":"10 Fulle Ave","address2":"","city":"Attleboro","country_code":"USA","description":"US Office","latitude":41.906354,"longitude":-71.316927,"state_code":"MA","zip_code":"02703","location":[-71.316927,41.906354],"Geolocation":[-71.316927,41.906354]},{"address1":"10 Beacontree Plaza","address2":"Gillette Way","city":"READING","country_code":"GBR","description":"European Head Office","latitude":51.4323208,"longitude":-0.9717955,"state_code":null,"zip_code":"RG2 0BS","location":[-0.9717955,51.4323208],"Geolocation":[-0.9717955,51.4323208]},{"address1":"5501 Fortune's Ridge","address2":"","city":"Durham","country_code":"USA","description":"US Head Office","latitude":35.924301,"longitude":-78.927914,"state_code":"NC","zip_code":"27713","location":[-78.927914,35.924301],"Geolocation":[-78.927914,35.924301]},{"address1":"5912 Balcones Drive","address2":"Suite 102","city":"Austin","country_code":"USA","description":"World Headquarters","latitude":30.341865,"longitude":-97.754644,"state_code":"TX","zip_code":"78731","location":[-97.754644,30.341865],"Geolocation":[-97.754644,30.341865]},{"address1":"1700 Seaport Blvd.","address2":"#150","city":"Redwood City","country_code":"USA","description":"Course Hero","latitude":37.511228,"longitude":-122.200622,"state_code":"CA","zip_code":"94063","location":[-122.200622,37.511228],"Geolocation":[-122.200622,37.511228]},{"address1":"109-123 Clifton Street","address2":"Zetland House","city":"London","country_code":"GBR","description":"","latitude":51.5219131,"longitude":-0.0833747,"state_code":null,"zip_code":"EC2A 4LD","location":[-0.0833747,51.5219131],"Geolocation":[-0.0833747,51.5219131]},{"address1":"60 South Market Street, Suite 1200","address2":"","city":"San Jose","country_code":"USA","description":"Silicon Valley","latitude":37.335003,"longitude":-121.890153,"state_code":"CA","zip_code":"95113","location":[-121.890153,37.335003],"Geolocation":[-121.890153,37.335003]},{"address1":"811 W. 7th Street","address2":"Suite 300","city":"Los Angeles","country_code":"USA","description":"Headquarters","latitude":34.0490571,"longitude":-118.2593181,"state_code":"CA","zip_code":"90017","location":[-118.2593181,34.0490571],"Geolocation":[-118.2593181,34.0490571]},{"address1":"1612 U Street NW","address2":"Suite 410","city":"Washington","country_code":"USA","description":"East Coast","latitude":38.916733,"longitude":-77.037614,"state_code":"DC","zip_code":"20009","location":[-77.037614,38.916733],"Geolocation":[-77.037614,38.916733]},{"address1":"Vijzelstraat 20","address2":"","city":"Amsterdam","country_code":"NLD","description":"HQ","latitude":52.3657578,"longitude":4.8928722,"state_code":null,"zip_code":"1017HK","location":[4.8928722,52.3657578],"Geolocation":[4.8928722,52.3657578]},{"address1":"","address2":"","city":"","country_code":"IND","description":"","latitude":37.383777,"longitude":-121.963705,"state_code":null,"zip_code":"","location":[-121.963705,37.383777],"Geolocation":[-121.963705,37.383777]},{"address1":null,"address2":null,"city":"Austin","country_code":"USA","description":null,"latitude":30.267153,"longitude":-97.7430608,"state_code":"TX","zip_code":null,"location":[-97.7430608,30.267153],"Geolocation":[-97.7430608,30.267153]},{"address1":"959 AEC Drive","address2":"","city":"Wood Dale","country_code":"USA","description":"Headquarters","latitude":41.9808335,"longitude":-87.9825732,"state_code":"IL","zip_code":"60191","location":[-87.9825732,41.9808335],"Geolocation":[-87.9825732,41.9808335]},{"address1":"60 George Street","address2":"Suite 203","city":"Ottawa","country_code":"CAN","description":null,"latitude":45.42694,"longitude":-75.692196,"state_code":null,"zip_code":"K1N 1J4","location":[-75.692196,45.42694],"Geolocation":[-75.692196,45.42694]},{"address1":"6500 River Place Blvd","address2":"Building 2, Suite 450","city":"Austin","country_code":"USA","description":"Headquarters","latitude":30.392018,"longitude":-97.848345,"state_code":"TX","zip_code":"78730","location":[-97.848345,30.392018],"Geolocation":[-97.848345,30.392018]},{"address1":"100 Highland Park Village","address2":"Ste 200","city":"Dallas","country_code":"USA","description":"Headquarters","latitude":32.836277,"longitude":-96.806578,"state_code":"TX","zip_code":"75205","location":[-96.806578,32.836277],"Geolocation":[-96.806578,32.836277]},{"address1":"1975 Lndings Drive","address2":"","city":"Mountain View","country_code":"USA","description":"Gridstore","latitude":37.4189073,"longitude":-122.0884286,"state_code":"CA","zip_code":"94043","location":[-122.0884286,37.4189073],"Geolocation":[-122.0884286,37.4189073]},{"address1":"1020 East Meadow Circle","address2":"","city":"Palo Alto","country_code":"USA","description":"HQ","latitude":37.431409,"longitude":-122.10649,"state_code":"CA","zip_code":"94303-4230","location":[-122.10649,37.431409],"Geolocation":[-122.10649,37.431409]},{"address1":"280 Hope Street","address2":"","city":"Mountain View","country_code":"USA","description":null,"latitude":37.392392,"longitude":-122.078727,"state_code":"CA","zip_code":"94041","location":[-122.078727,37.392392],"Geolocation":[-122.078727,37.392392]},{"address1":"P.O. BOX 150","address2":"","city":"SCHUYLER LAKE","country_code":"USA","description":"QLL COMMUNICATIONS","latitude":37.488336,"longitude":-122.217964,"state_code":"NY","zip_code":"13457","location":[-122.217964,37.488336],"Geolocation":[-122.217964,37.488336]},{"address1":"855 Oak Grove Ave.","address2":"Suite 100","city":"Menlo Park","country_code":"USA","description":null,"latitude":37.451026,"longitude":-122.18676,"state_code":"CA","zip_code":"94025","location":[-122.18676,37.451026],"Geolocation":[-122.18676,37.451026]},{"address1":"1230 Midas Way, Ste 210","address2":"","city":"Sunnyvale","country_code":"USA","description":"","latitude":37.384651,"longitude":-121.992132,"state_code":"CA","zip_code":"94085","location":[-121.992132,37.384651],"Geolocation":[-121.992132,37.384651]},{"address1":"","address2":"","city":"Boulder","country_code":"USA","description":"HQ","latitude":40.010492,"longitude":-105.276843,"state_code":"CO","zip_code":"","location":[-105.276843,40.010492],"Geolocation":[-105.276843,40.010492]},{"address1":"","address2":"","city":"New York","country_code":"USA","description":"","latitude":40.74406,"longitude":-74.004592,"state_code":"NY","zip_code":"10012","location":[-74.004592,40.74406],"Geolocation":[-74.004592,40.74406]},{"address1":"117 NW 5th Ave","address2":"Suite 210","city":"Portland","country_code":"USA","description":"Main Office","latitude":45.5241278,"longitude":-122.675448,"state_code":"OR","zip_code":"97209","location":[-122.675448,45.5241278],"Geolocation":[-122.675448,45.5241278]},{"address1":"114 Alaskan Way South","address2":"Ste. 100","city":"Seattle","country_code":"USA","description":"","latitude":47.6015315,"longitude":-122.335943,"state_code":"WA","zip_code":"98104","location":[-122.335943,47.6015315],"Geolocation":[-122.335943,47.6015315]},{"address1":"66 Willow Place","address2":null,"city":"Menlo Park","country_code":"USA","description":null,"latitude":37.451124,"longitude":-122.166264,"state_code":null,"zip_code":"94025","location":[-122.166264,37.451124],"Geolocation":[-122.166264,37.451124]},{"address1":"One Franklin Parkway","address2":"Building 910, Suite 110","city":"San Mateo","country_code":"USA","description":"","latitude":37.566879,"longitude":-122.323895,"state_code":"CA","zip_code":"94401","location":[-122.323895,37.566879],"Geolocation":[-122.323895,37.566879]},{"address1":"12 West 31st Street","address2":"","city":"New York","country_code":"USA","description":"","latitude":40.756799,"longitude":-73.976348,"state_code":"NY","zip_code":"10001","location":[-73.976348,40.756799],"Geolocation":[-73.976348,40.756799]},{"address1":"2390A 4th Street","address2":"","city":"Berkeley","country_code":"USA","description":"","latitude":37.862209,"longitude":-122.298168,"state_code":"CA","zip_code":"94710","location":[-122.298168,37.862209],"Geolocation":[-122.298168,37.862209]},{"address1":"93 rue Vieille du Temple","address2":"","city":"Paris","country_code":"FRA","description":"","latitude":48.8599791,"longitude":2.3608064,"state_code":null,"zip_code":"75003","location":[2.3608064,48.8599791],"Geolocation":[2.3608064,48.8599791]},{"address1":"1445 Merchant Dr Algonquin, IL","address2":"","city":"Cary","country_code":"USA","description":"Cary Boot Camp","latitude":37.281651,"longitude":-121.941184,"state_code":"IL","zip_code":"60102","location":[-121.941184,37.281651],"Geolocation":[-121.941184,37.281651]},{"address1":"555 Rose Avenue","address2":"Studio G","city":"Venice","country_code":"USA","description":"Headquarters","latitude":33.999004,"longitude":-118.472297,"state_code":"CA","zip_code":"90291","location":[-118.472297,33.999004],"Geolocation":[-118.472297,33.999004]},{"address1":"290 King Street","address2":"","city":"San Francisco","country_code":"USA","description":"Corporate Headquarters","latitude":37.7766184,"longitude":-122.3938931,"state_code":"CA","zip_code":"94107","location":[-122.3938931,37.7766184],"Geolocation":[-122.3938931,37.7766184]},{"address1":null,"address2":null,"city":null,"country_code":"USA","description":null,"latitude":37.09024,"longitude":-95.712891,"state_code":null,"zip_code":null,"location":[-95.712891,37.09024],"Geolocation":[-95.712891,37.09024]},{"address1":null,"address2":null,"city":"San Francisco","country_code":"USA","description":null,"latitude":37.7749295,"longitude":-122.4194155,"state_code":"CA","zip_code":null,"location":[-122.4194155,37.7749295],"Geolocation":[-122.4194155,37.7749295]},{"address1":null,"address2":null,"city":"San Francisco","country_code":"USA","description":null,"latitude":37.798853,"longitude":-122.398599,"state_code":"CA","zip_code":"94111","location":[-122.398599,37.798853],"Geolocation":[-122.398599,37.798853]},{"address1":"U vodarny 2","address2":"","city":"Brno","country_code":"CZE","description":"","latitude":49.2259017,"longitude":16.5692822,"state_code":null,"zip_code":"616 00","location":[16.5692822,49.2259017],"Geolocation":[16.5692822,49.2259017]},{"address1":null,"address2":null,"city":"Kolkata","country_code":"IND","description":null,"latitude":22.572646,"longitude":88.363895,"state_code":null,"zip_code":null,"location":[88.363895,22.572646],"Geolocation":[88.363895,22.572646]},{"address1":"","address2":"","city":"","country_code":"USA","description":null,"latitude":38.003376,"longitude":-79.420926,"state_code":"VA","zip_code":"","location":[-79.420926,38.003376],"Geolocation":[-79.420926,38.003376]},{"address1":"1841 Page Mill Road, G-2","address2":"","city":"Palo Alto","country_code":"USA","description":null,"latitude":37.407752,"longitude":-122.154565,"state_code":"CA","zip_code":"94304","location":[-122.154565,37.407752],"Geolocation":[-122.154565,37.407752]},{"address1":"","address2":"","city":"San Francisco","country_code":"USA","description":null,"latitude":37.775196,"longitude":-122.419204,"state_code":"CA","zip_code":"","location":[-122.419204,37.775196],"Geolocation":[-122.419204,37.775196]},{"address1":"1567 Argyle Street","address2":"","city":"Halifax","country_code":"CAN","description":null,"latitude":44.645756,"longitude":-63.57411,"state_code":null,"zip_code":"B3J 2B2","location":[-63.57411,44.645756],"Geolocation":[-63.57411,44.645756]},{"address1":"2201 Broadway","address2":"Suite 715","city":"Oakland","country_code":"USA","description":"Global Headquarters","latitude":37.810949,"longitude":-122.26706,"state_code":"CA","zip_code":"94612","location":[-122.26706,37.810949],"Geolocation":[-122.26706,37.810949]},{"address1":"suite 5, 13-29 nichols st","address2":"surry hills","city":"sydney","country_code":"AUS","description":null,"latitude":-33.884685,"longitude":151.216427,"state_code":null,"zip_code":"2010","location":[151.216427,-33.884685],"Geolocation":[151.216427,-33.884685]},{"address1":"2100 Seaport Blvd.","address2":"Suite 400","city":"Redwood City","country_code":"USA","description":"HQ","latitude":37.512318,"longitude":-122.200914,"state_code":"CA","zip_code":"94063","location":[-122.200914,37.512318],"Geolocation":[-122.200914,37.512318]},{"address1":"107 Cheapside","address2":"","city":"London","country_code":"GBR","description":"London Office","latitude":51.5141566,"longitude":-0.0934254,"state_code":null,"zip_code":"EC2V 6DY","location":[-0.0934254,51.5141566],"Geolocation":[-0.0934254,51.5141566]},{"address1":"33 West 17th St","address2":"Suite 903","city":"New York","country_code":"USA","description":"New York Office","latitude":40.7387945,"longitude":-73.9939213,"state_code":"NY","zip_code":"10011","location":[-73.9939213,40.7387945],"Geolocation":[-73.9939213,40.7387945]},